[{"longitude":-0.109971,"latitude":51.5292,"station_id":1,"station_name":"River Street, Clerkenwell","ntrips":0},{"longitude":-0.197574,"latitude":51.4996,"station_id":2,"station_name":"Phillimore Gardens, Kensington","ntrips":4},{"longitude":-0.0846057,"latitude":51.5213,"station_id":3,"station_name":"Christopher Street, Liverpool Street","ntrips":3},{"longitude":-0.120974,"latitude":51.5301,"station_id":4,"station_name":"St. Chad's Street, King's Cross","ntrips":1},{"longitude":-0.156876,"latitude":51.4931,"station_id":5,"station_name":"Sedding Street, Sloane Square","ntrips":5},{"longitude":-0.144229,"latitude":51.5181,"station_id":6,"station_name":"Broadcasting House, Marylebone","ntrips":1},{"longitude":-0.168074,"latitude":51.5343,"station_id":7,"station_name":"Charlbert Street, St. John's Wood","ntrips":0},{"longitude":-0.183486,"latitude":51.529857,"station_id":8,"station_name":"Maida Vale, Maida Vale","ntrips":5},{"longitude":-0.0964408,"latitude":51.5074,"station_id":9,"station_name":"New Globe Walk, Bankside","ntrips":1},{"longitude":-0.0927542,"latitude":51.506,"station_id":10,"station_name":"Park Street, Bankside","ntrips":1},{"longitude":-0.122502,"latitude":51.524,"station_id":11,"station_name":"Brunswick Square, Bloomsbury","ntrips":2},{"longitude":-0.130432,"latitude":51.5217,"station_id":12,"station_name":"Malet Street, Bloomsbury","ntrips":1},{"longitude":-0.13604,"latitude":51.5199,"station_id":13,"station_name":"Scala Street, Fitzrovia","ntrips":2},{"longitude":-0.123617,"latitude":51.5299,"station_id":14,"station_name":"Belgrove Street, King's Cross","ntrips":5},{"longitude":-0.127854,"latitude":51.5177,"station_id":15,"station_name":"Great Russell Street, Bloomsbury","ntrips":2},{"longitude":-0.125979,"latitude":51.5264,"station_id":16,"station_name":"Cartwright Gardens, Bloomsbury","ntrips":0},{"longitude":-0.109006,"latitude":51.5217,"station_id":17,"station_name":"Hatton Wall, Holborn","ntrips":0},{"longitude":-0.12222,"latitude":51.5148,"station_id":18,"station_name":"Drury Lane, Covent Garden","ntrips":1},{"longitude":-0.131161,"latitude":51.5251,"station_id":19,"station_name":"Taviton Street, Bloomsbury","ntrips":0},{"longitude":-0.135273,"latitude":51.5277,"station_id":20,"station_name":"Drummond Street, Euston","ntrips":0},{"longitude":-0.138846,"latitude":51.5301,"station_id":21,"station_name":"Hampstead Road (Cartmel), Euston","ntrips":0},{"longitude":-0.114079,"latitude":51.5223,"station_id":22,"station_name":"Northington Street, Holborn","ntrips":3},{"longitude":-0.119123,"latitude":51.5194,"station_id":23,"station_name":"Red Lion Square, Holborn","ntrips":0},{"longitude":-0.124678,"latitude":51.5191,"station_id":24,"station_name":"British Museum, Bloomsbury","ntrips":1},{"longitude":-0.13225,"latitude":51.5288,"station_id":25,"station_name":"Doric Way, Somers Town","ntrips":1},{"longitude":-0.118295,"latitude":51.5273,"station_id":26,"station_name":"Ampton Street, Clerkenwell","ntrips":0},{"longitude":-0.107928,"latitude":51.5138,"station_id":27,"station_name":"Bouverie Street, Temple","ntrips":1},{"longitude":-0.143614,"latitude":51.5235,"station_id":28,"station_name":"Bolsover Street, Fitzrovia","ntrips":3},{"longitude":-0.193487,"latitude":51.5137,"station_id":29,"station_name":"Hereford Road, Bayswater","ntrips":2},{"longitude":-0.0934216,"latitude":51.5292,"station_id":30,"station_name":"Windsor Terrace, Hoxton","ntrips":3},{"longitude":-0.0833533,"latitude":51.5295,"station_id":31,"station_name":"Fanshaw Street, Hoxton","ntrips":0},{"longitude":-0.0844393,"latitude":51.5247,"station_id":32,"station_name":"Leonard Circus, Shoreditch","ntrips":3},{"longitude":-0.0678275,"latitude":51.5168,"station_id":33,"station_name":"Central House, Aldgate","ntrips":2},{"longitude":-0.129387,"latitude":51.5341,"station_id":34,"station_name":"Pancras Road, King's Cross","ntrips":0},{"longitude":-0.184981,"latitude":51.5017,"station_id":36,"station_name":"De Vere Gardens, Kensington","ntrips":2},{"longitude":-0.192369,"latitude":51.4916,"station_id":37,"station_name":"Penywern Road, Earl's Court","ntrips":2},{"longitude":-0.197246,"latitude":51.4974,"station_id":38,"station_name":"Abingdon Villas, Kensington","ntrips":5},{"longitude":-0.0781309,"latitude":51.5264,"station_id":39,"station_name":"Shoreditch High Street, Shoreditch","ntrips":1},{"longitude":-0.0755789,"latitude":51.5213,"station_id":40,"station_name":"Commercial Street, Shoreditch","ntrips":1},{"longitude":-0.0839112,"latitude":51.52,"station_id":41,"station_name":"Pindar Street, Liverpool Street","ntrips":4},{"longitude":-0.0939038,"latitude":51.531,"station_id":42,"station_name":"Wenlock Road, Hoxton","ntrips":1},{"longitude":-0.157184,"latitude":51.5203,"station_id":43,"station_name":"Crawford Street, Marylebone","ntrips":2},{"longitude":-0.144165,"latitude":51.5107,"station_id":44,"station_name":"Bruton Street, Mayfair","ntrips":3},{"longitude":-0.162298,"latitude":51.5225,"station_id":45,"station_name":"Boston Place, Marylebone","ntrips":1},{"longitude":-0.06691,"latitude":51.5071,"station_id":46,"station_name":"Nesham Street, Wapping","ntrips":1},{"longitude":-0.183846,"latitude":51.5233,"station_id":47,"station_name":"Warwick Avenue Station, Maida Vale","ntrips":1},{"longitude":-0.0991414,"latitude":51.5125,"station_id":48,"station_name":"Godliman Street, St. Paul's","ntrips":1},{"longitude":-0.145904,"latitude":51.5071,"station_id":49,"station_name":"Curzon Street, Mayfair","ntrips":1},{"longitude":-0.0874594,"latitude":51.5287,"station_id":50,"station_name":"East Road, Hoxton","ntrips":0},{"longitude":-0.104298,"latitude":51.5267,"station_id":51,"station_name":"Finsbury Library, Finsbury","ntrips":1},{"longitude":-0.0949349,"latitude":51.523,"station_id":52,"station_name":"Roscoe Street, St. Luke's","ntrips":2},{"longitude":-0.143495,"latitude":51.51,"station_id":53,"station_name":"Grafton Street, Mayfair","ntrips":0},{"longitude":-0.0944751,"latitude":51.5217,"station_id":54,"station_name":"Golden Lane, Barbican","ntrips":1},{"longitude":-0.0866855,"latitude":51.5171,"station_id":55,"station_name":"Finsbury Circus, Liverpool Street","ntrips":5},{"longitude":-0.154701,"latitude":51.5206,"station_id":56,"station_name":"Paddington Street, Marylebone","ntrips":2},{"longitude":-0.120203,"latitude":51.5233,"station_id":57,"station_name":"Guilford Street, Bloomsbury","ntrips":9},{"longitude":-0.0792481,"latitude":51.5245,"station_id":58,"station_name":"New Inn Yard, Shoreditch","ntrips":2},{"longitude":-0.114329,"latitude":51.5318,"station_id":59,"station_name":"Rodney Street, Angel","ntrips":0},{"longitude":-0.172191,"latitude":51.5264,"station_id":60,"station_name":"Lisson Grove, St. John's Wood","ntrips":1},{"longitude":-0.0894469,"latitude":51.4974,"station_id":61,"station_name":"Great Dover Street, The Borough","ntrips":3},{"longitude":-0.106324,"latitude":51.4908,"station_id":62,"station_name":"Cotton Garden Estate, Kennington","ntrips":1},{"longitude":-0.0897826,"latitude":51.5309,"station_id":63,"station_name":"Murray Grove, Hoxton","ntrips":1},{"longitude":-0.124749,"latitude":51.5095,"station_id":64,"station_name":"William IV Street, Strand","ntrips":4},{"longitude":-0.135189,"latitude":51.5252,"station_id":65,"station_name":"Gower Place, Euston","ntrips":0},{"longitude":-0.108657,"latitude":51.518,"station_id":66,"station_name":"Holborn Circus, Holborn","ntrips":2},{"longitude":-0.108028,"latitude":51.5188,"station_id":67,"station_name":"Hatton Garden, Holborn","ntrips":0},{"longitude":-0.116688,"latitude":51.5206,"station_id":68,"station_name":"Theobald's Road, Holborn","ntrips":3},{"longitude":-0.134408,"latitude":51.5262,"station_id":69,"station_name":"Euston Road, Euston","ntrips":1},{"longitude":-0.11707,"latitude":51.5314,"station_id":70,"station_name":"Calshot Street, King's Cross","ntrips":0},{"longitude":-0.0988509,"latitude":51.5154,"station_id":71,"station_name":"Newgate Street, St. Paul's","ntrips":3},{"longitude":-0.10834,"latitude":51.5235,"station_id":72,"station_name":"Farringdon Lane, Clerkenwell","ntrips":0},{"longitude":-0.0884862,"latitude":51.5257,"station_id":73,"station_name":"Old Street Station, St. Luke's","ntrips":1},{"longitude":-0.12447,"latitude":51.4859,"station_id":74,"station_name":"Vauxhall Cross, Vauxhall","ntrips":3},{"longitude":-0.105481,"latitude":51.5322,"station_id":75,"station_name":"Torrens Street, Angel","ntrips":0},{"longitude":-0.144084,"latitude":51.5256,"station_id":76,"station_name":"Longford Street, The Regent's Park","ntrips":0},{"longitude":-0.124122,"latitude":51.5234,"station_id":77,"station_name":"Russell Square Station, Bloomsbury","ntrips":1},{"longitude":-0.0994895,"latitude":51.5249,"station_id":78,"station_name":"Sadlers Sports Centre, Finsbury","ntrips":1},{"longitude":-0.0971465,"latitude":51.4912,"station_id":79,"station_name":"Arundel Street, Temple","ntrips":1},{"longitude":-0.102091,"latitude":51.5007,"station_id":80,"station_name":"Webber Street, Southwark","ntrips":0},{"longitude":-0.141327,"latitude":51.5203,"station_id":81,"station_name":"Great Titchfield Street, Fitzrovia","ntrips":0},{"longitude":-0.111257,"latitude":51.5143,"station_id":82,"station_name":"Chancery Lane, Holborn","ntrips":0},{"longitude":-0.131511,"latitude":51.5096,"station_id":83,"station_name":"Panton Street, West End","ntrips":1},{"longitude":-0.111778,"latitude":51.5159,"station_id":84,"station_name":"Breams Buildings, Holborn","ntrips":1},{"longitude":-0.0786004,"latitude":51.5006,"station_id":85,"station_name":"Tanner Street, Bermondsey","ntrips":1},{"longitude":-0.115157,"latitude":51.4895,"station_id":86,"station_name":"Sancroft Street, Vauxhall","ntrips":2},{"longitude":-0.0796846,"latitude":51.5165,"station_id":87,"station_name":"Devonshire Square, Liverpool Street","ntrips":2},{"longitude":-0.132053,"latitude":51.5186,"station_id":88,"station_name":"Bayley Street, Bloomsbury","ntrips":3},{"longitude":-0.12351,"latitude":51.5263,"station_id":89,"station_name":"Tavistock Place, Bloomsbury","ntrips":1},{"longitude":-0.139175,"latitude":51.533,"station_id":90,"station_name":"Harrington Square 1, Camden Town","ntrips":0},{"longitude":-0.111015,"latitude":51.4937,"station_id":91,"station_name":"Walnut Tree Walk, Vauxhall","ntrips":1},{"longitude":-0.100441,"latitude":51.4989,"station_id":92,"station_name":"Borough Road, Elephant & Castle","ntrips":0},{"longitude":-0.109025,"latitude":51.5344,"station_id":93,"station_name":"Cloudesley Road, Angel","ntrips":1},{"longitude":-0.0858145,"latitude":51.4951,"station_id":94,"station_name":"Bricklayers Arms, Borough","ntrips":2},{"longitude":-0.0973402,"latitude":51.5208,"station_id":95,"station_name":"Aldersgate Street, Barbican","ntrips":0},{"longitude":-0.0785054,"latitude":51.531,"station_id":96,"station_name":"Falkirk Street, Hoxton","ntrips":1},{"longitude":-0.183835,"latitude":51.4979,"station_id":97,"station_name":"Gloucester Road (North), Kensington","ntrips":2},{"longitude":-0.138231,"latitude":51.5255,"station_id":98,"station_name":"Hampstead Road, Euston","ntrips":1},{"longitude":-0.158264,"latitude":51.5146,"station_id":99,"station_name":"Old Quebec Street, Marylebone","ntrips":2},{"longitude":-0.122807,"latitude":51.4904,"station_id":100,"station_name":"Albert Embankment, Vauxhall","ntrips":4},{"longitude":-0.0929401,"latitude":51.5116,"station_id":101,"station_name":"Queen Street 1, Bank","ntrips":4},{"longitude":-0.0767934,"latitude":51.5134,"station_id":102,"station_name":"Jewry Street, Aldgate","ntrips":3},{"longitude":-0.192539,"latitude":51.5047,"station_id":103,"station_name":"Vicarage Gate, Kensington","ntrips":3},{"longitude":-0.0771213,"latitude":51.5116,"station_id":104,"station_name":"Crosswall, Tower","ntrips":3},{"longitude":-0.190241,"latitude":51.5155,"station_id":105,"station_name":"Westbourne Grove, Bayswater","ntrips":2},{"longitude":-0.147302,"latitude":51.5141,"station_id":106,"station_name":"Woodstock Street, Mayfair","ntrips":1},{"longitude":-0.0963176,"latitude":51.526,"station_id":107,"station_name":"Finsbury Leisure Centre, St. Luke's","ntrips":0},{"longitude":-0.132102,"latitude":51.4981,"station_id":108,"station_name":"Abbey Orchard Street, Westminster","ntrips":3},{"longitude":-0.132329,"latitude":51.5156,"station_id":109,"station_name":"Soho Square, Soho","ntrips":3},{"longitude":-0.172529,"latitude":51.533,"station_id":110,"station_name":"Wellington Road, St. John's Wood","ntrips":0},{"longitude":-0.157276,"latitude":51.51,"station_id":111,"station_name":"Park Lane, Hyde Park","ntrips":0},{"longitude":-0.10527,"latitude":51.5158,"station_id":112,"station_name":"Stonecutter Street, Holborn","ntrips":1},{"longitude":-0.183289,"latitude":51.4965,"station_id":113,"station_name":"Gloucester Road (Central), South Kensington","ntrips":0},{"longitude":-0.158964,"latitude":51.5245,"station_id":114,"station_name":"Park Road (Baker Street), The Regent's Park","ntrips":0},{"longitude":-0.0735377,"latitude":51.5142,"station_id":115,"station_name":"Braham Street, Aldgate","ntrips":2},{"longitude":-0.141424,"latitude":51.5145,"station_id":116,"station_name":"Little Argyll Street, West End","ntrips":1},{"longitude":-0.114934,"latitude":51.4929,"station_id":117,"station_name":"Lollard Street, Vauxhall","ntrips":1},{"longitude":-0.135478,"latitude":51.4958,"station_id":118,"station_name":"Rochester Row, Westminster","ntrips":1},{"longitude":-0.0908478,"latitude":51.5259,"station_id":119,"station_name":"Bath Street, St. Luke's","ntrips":2},{"longitude":-0.0930808,"latitude":51.5157,"station_id":120,"station_name":"The Guildhall, Guildhall","ntrips":1},{"longitude":-0.156167,"latitude":51.5189,"station_id":121,"station_name":"Baker Street, Marylebone","ntrips":0},{"longitude":-0.0788698,"latitude":51.5211,"station_id":122,"station_name":"Norton Folgate, Liverpool Street","ntrips":4},{"longitude":-0.104725,"latitude":51.5284,"station_id":123,"station_name":"St. John Street, Finsbury","ntrips":0},{"longitude":-0.150905,"latitude":51.4965,"station_id":124,"station_name":"Eaton Square, Belgravia","ntrips":1},{"longitude":-0.0945243,"latitude":51.5007,"station_id":125,"station_name":"Borough High Street, The Borough","ntrips":5},{"longitude":-0.0964969,"latitude":51.5178,"station_id":126,"station_name":"Museum of London, Barbican","ntrips":2},{"longitude":-0.0938854,"latitude":51.517,"station_id":127,"station_name":"Wood Street, Guildhall","ntrips":0},{"longitude":-0.185297,"latitude":51.4954,"station_id":128,"station_name":"Emperor's Gate, South Kensington","ntrips":3},{"longitude":-0.137044,"latitude":51.5119,"station_id":129,"station_name":"Golden Square, Soho","ntrips":2},{"longitude":-0.0754595,"latitude":51.5095,"station_id":130,"station_name":"Tower Gardens, Tower","ntrips":0},{"longitude":-0.136793,"latitude":51.533,"station_id":131,"station_name":"Eversholt Street, Camden Town","ntrips":1},{"longitude":-0.0747549,"latitude":51.5236,"station_id":132,"station_name":"Bethnal Green Road, Shoreditch","ntrips":3},{"longitude":-0.191462,"latitude":51.5014,"station_id":133,"station_name":"Derry Street, Kensington","ntrips":0},{"longitude":-0.06797,"latitude":51.5049,"station_id":134,"station_name":"Wapping High Street, Wapping","ntrips":1},{"longitude":-0.104709,"latitude":51.5233,"station_id":135,"station_name":"Clerkenwell Green, Clerkenwell","ntrips":6},{"longitude":-0.0974417,"latitude":51.512,"station_id":136,"station_name":"Queen Victoria Street, St. Paul's","ntrips":2},{"longitude":-0.157437,"latitude":51.5123,"station_id":138,"station_name":"Green Street, Mayfair","ntrips":2},{"longitude":-0.117975,"latitude":51.4949,"station_id":139,"station_name":"Lambeth Road, Vauxhall","ntrips":1},{"longitude":-0.0856342,"latitude":51.521,"station_id":140,"station_name":"Finsbury Square, Moorgate","ntrips":1},{"longitude":-0.147204,"latitude":51.5153,"station_id":141,"station_name":"Chapel Place, Marylebone","ntrips":0},{"longitude":-0.198287,"latitude":51.4937,"station_id":142,"station_name":"West Cromwell Road, Earl's Court","ntrips":1},{"longitude":-0.161204,"latitude":51.4969,"station_id":143,"station_name":"Pont Street, Knightsbridge","ntrips":4},{"longitude":-0.111436,"latitude":51.4889,"station_id":144,"station_name":"Kennington Cross, Kennington","ntrips":6},{"longitude":-0.202759,"latitude":51.5007,"station_id":145,"station_name":"Ilchester Place, Kensington","ntrips":0},{"longitude":-0.129362,"latitude":51.4884,"station_id":146,"station_name":"Vauxhall Bridge, Pimlico","ntrips":0},{"longitude":-0.116146,"latitude":51.5149,"station_id":147,"station_name":"Portugal Street, Holborn","ntrips":0},{"longitude":-0.138365,"latitude":51.4921,"station_id":148,"station_name":"Tachbrook Street, Victoria","ntrips":2},{"longitude":-0.110683,"latitude":51.4848,"station_id":149,"station_name":"Kennington Road Post Office, Oval","ntrips":0},{"longitude":-0.168917,"latitude":51.4971,"station_id":150,"station_name":"Holy Trinity Brompton, Knightsbridge","ntrips":1},{"longitude":-0.201555,"latitude":51.5121,"station_id":151,"station_name":"Chepstow Villas, Notting Hill","ntrips":0},{"longitude":-0.101537,"latitude":51.4922,"station_id":152,"station_name":"Hampton Street, Walworth","ntrips":0},{"longitude":-0.174293,"latitude":51.5118,"station_id":153,"station_name":"Bayswater Road, Hyde Park","ntrips":1},{"longitude":-0.113864,"latitude":51.504,"station_id":154,"station_name":"Waterloo Station 3, Waterloo","ntrips":1},{"longitude":-0.191934,"latitude":51.4959,"station_id":155,"station_name":"Lexham Gardens, Kensington","ntrips":4},{"longitude":-0.0929212,"latitude":51.4944,"station_id":156,"station_name":"New Kent Road, The Borough","ntrips":1},{"longitude":-0.193068,"latitude":51.5004,"station_id":157,"station_name":"Wright's Lane, Kensington","ntrips":4},{"longitude":-0.19617,"latitude":51.4909,"station_id":158,"station_name":"Trebovir Road, Earl's Court","ntrips":1},{"longitude":-0.137841,"latitude":51.5146,"station_id":159,"station_name":"Great Marlborough Street, Soho","ntrips":2},{"longitude":-0.131774,"latitude":51.5066,"station_id":160,"station_name":"Waterloo Place, St. James's","ntrips":4},{"longitude":-0.141334,"latitude":51.4923,"station_id":161,"station_name":"Guildhouse Street, Victoria","ntrips":2},{"longitude":-0.121328,"latitude":51.5176,"station_id":162,"station_name":"Southampton Place, Holborn","ntrips":2},{"longitude":-0.167895,"latitude":51.4932,"station_id":163,"station_name":"Sloane Avenue, Knightsbridge","ntrips":5},{"longitude":-0.183119,"latitude":51.5156,"station_id":164,"station_name":"Cleveland Gardens, Bayswater","ntrips":1},{"longitude":-0.183717,"latitude":51.5179,"station_id":165,"station_name":"Orsett Terrace, Bayswater","ntrips":3},{"longitude":-0.159237,"latitude":51.5019,"station_id":166,"station_name":"Seville Street, Knightsbridge","ntrips":4},{"longitude":-0.147624,"latitude":51.494,"station_id":167,"station_name":"Eccleston Place, Victoria","ntrips":7},{"longitude":-0.195456,"latitude":51.5004,"station_id":168,"station_name":"Argyll Road, Kensington","ntrips":0},{"longitude":-0.165164,"latitude":51.5147,"station_id":169,"station_name":"Porchester Place, Paddington","ntrips":3},{"longitude":-0.108068,"latitude":51.5278,"station_id":170,"station_name":"Hardwick Street, Clerkenwell","ntrips":0},{"longitude":-0.186754,"latitude":51.4916,"station_id":171,"station_name":"Collingham Gardens, Earl's Court","ntrips":0},{"longitude":-0.173716,"latitude":51.4912,"station_id":172,"station_name":"Sumner Place, South Kensington","ntrips":2},{"longitude":-0.113001,"latitude":51.5049,"station_id":173,"station_name":"Waterloo Road, South Bank","ntrips":2},{"longitude":-0.115163,"latitude":51.5125,"station_id":174,"station_name":"Strand, Strand","ntrips":3},{"longitude":-0.0811189,"latitude":51.5217,"station_id":175,"station_name":"Worship Street, Shoreditch","ntrips":1},{"longitude":-0.188099,"latitude":51.5179,"station_id":176,"station_name":"Gloucester Terrace, Bayswater","ntrips":0},{"longitude":-0.140948,"latitude":51.4962,"station_id":177,"station_name":"Ashley Place, Victoria","ntrips":1},{"longitude":-0.141924,"latitude":51.4899,"station_id":178,"station_name":"Warwick Square, Pimlico","ntrips":2},{"longitude":-0.153645,"latitude":51.5129,"station_id":180,"station_name":"North Audley Street, Mayfair","ntrips":0},{"longitude":-0.152318,"latitude":51.4994,"station_id":181,"station_name":"Belgrave Square, Belgravia","ntrips":2},{"longitude":-0.165843,"latitude":51.522,"station_id":182,"station_name":"Bell Street, Marylebone","ntrips":1},{"longitude":-0.136124,"latitude":51.4824,"station_id":183,"station_name":"Riverlight North, Nine Elms","ntrips":0},{"longitude":-0.145212,"latitude":51.5207,"station_id":184,"station_name":"Portland Place, Marylebone","ntrips":1},{"longitude":-0.140741,"latitude":51.4881,"station_id":185,"station_name":"Alderney Street, Pimlico","ntrips":0},{"longitude":-0.175811,"latitude":51.5173,"station_id":186,"station_name":"South Wharf Road, Paddington","ntrips":1},{"longitude":-0.178433,"latitude":51.4925,"station_id":187,"station_name":"Queen's Gate (South), South Kensington","ntrips":2},{"longitude":-0.164394,"latitude":51.5165,"station_id":188,"station_name":"Nutford Place, Marylebone","ntrips":1},{"longitude":-0.109915,"latitude":51.5317,"station_id":189,"station_name":"Claremont Square, Angel","ntrips":1},{"longitude":-0.132846,"latitude":51.49,"station_id":190,"station_name":"Rampayne Street, Pimlico","ntrips":5},{"longitude":-0.153521,"latitude":51.5031,"station_id":191,"station_name":"Hyde Park Corner, Hyde Park","ntrips":4},{"longitude":-0.133202,"latitude":51.5125,"station_id":192,"station_name":"Wardour Street, Soho","ntrips":0},{"longitude":-0.100186,"latitude":51.5058,"station_id":193,"station_name":"Bankside Mix, Bankside","ntrips":2},{"longitude":-0.0917738,"latitude":51.5046,"station_id":194,"station_name":"Hop Exchange, The Borough","ntrips":2},{"longitude":-0.106238,"latitude":51.5072,"station_id":195,"station_name":"Milroy Walk, South Bank","ntrips":1},{"longitude":-0.0984977,"latitude":51.5037,"station_id":196,"station_name":"Union Street, The Borough","ntrips":1},{"longitude":-0.111607,"latitude":51.5056,"station_id":197,"station_name":"Stamford Street, South Bank","ntrips":1},{"longitude":-0.0829896,"latitude":51.5105,"station_id":199,"station_name":"Great Tower Street, Monument","ntrips":6},{"longitude":-0.066078,"latitude":51.5149,"station_id":200,"station_name":"LMU Commercial Road, Whitechapel","ntrips":1},{"longitude":-0.161113,"latitude":51.5226,"station_id":201,"station_name":"Dorset Square, Marylebone","ntrips":2},{"longitude":-0.069542,"latitude":51.5124,"station_id":202,"station_name":"Leman Street, Aldgate","ntrips":1},{"longitude":-0.100791,"latitude":51.5182,"station_id":203,"station_name":"West Smithfield Rotunda, Farringdon","ntrips":3},{"longitude":-0.112433,"latitude":51.5266,"station_id":204,"station_name":"Margery Street, Clerkenwell","ntrips":1},{"longitude":-0.06275,"latitude":51.5181,"station_id":206,"station_name":"New Road 1, Whitechapel","ntrips":4},{"longitude":-0.153195,"latitude":51.5014,"station_id":207,"station_name":"Grosvenor Crescent, Belgravia","ntrips":0},{"longitude":-0.166304,"latitude":51.5251,"station_id":208,"station_name":"Mallory Street, Marylebone","ntrips":2},{"longitude":-0.165101,"latitude":51.4936,"station_id":209,"station_name":"Denyer Street, Knightsbridge","ntrips":2},{"longitude":-0.151926,"latitude":51.5168,"station_id":210,"station_name":"Hinde Street, Marylebone","ntrips":9},{"longitude":-0.158106,"latitude":51.4946,"station_id":211,"station_name":"Cadogan Place, Knightsbridge","ntrips":1},{"longitude":-0.199004,"latitude":51.5066,"station_id":212,"station_name":"Campden Hill Road, Notting Hill","ntrips":0},{"longitude":-0.149569,"latitude":51.5027,"station_id":213,"station_name":"Wellington Arch, Hyde Park","ntrips":0},{"longitude":-0.130504,"latitude":51.5268,"station_id":214,"station_name":"Endsleigh Gardens, Euston","ntrips":2},{"longitude":-0.0882854,"latitude":51.5191,"station_id":215,"station_name":"Moorfields, Moorgate","ntrips":2},{"longitude":-0.181191,"latitude":51.4909,"station_id":216,"station_name":"Old Brompton Road, South Kensington","ntrips":2},{"longitude":-0.0824224,"latitude":51.5162,"station_id":217,"station_name":"Wormwood Street, Liverpool Street","ntrips":5},{"longitude":-0.170194,"latitude":51.4897,"station_id":218,"station_name":"St. Luke's Church, Chelsea","ntrips":2},{"longitude":-0.190394,"latitude":51.4902,"station_id":219,"station_name":"Bramham Gardens, Earl's Court","ntrips":2},{"longitude":-0.166485,"latitude":51.4907,"station_id":220,"station_name":"Chelsea Green, Chelsea","ntrips":1},{"longitude":-0.130459,"latitude":51.4948,"station_id":221,"station_name":"Horseferry Road, Westminster","ntrips":1},{"longitude":-0.15535,"latitude":51.5028,"station_id":222,"station_name":"Knightsbridge, Hyde Park","ntrips":0},{"longitude":-0.0902209,"latitude":51.4915,"station_id":223,"station_name":"Rodney Road, Walworth","ntrips":1},{"longitude":-0.1874024,"latitude":51.51031,"station_id":224,"station_name":"Queensway, Westminster","ntrips":0},{"longitude":-0.196422,"latitude":51.5094,"station_id":225,"station_name":"Notting Hill Gate Station, Notting Hill","ntrips":1},{"longitude":-0.131961,"latitude":51.5084,"station_id":226,"station_name":"Charles II Street, West End","ntrips":0},{"longitude":-0.115481,"latitude":51.5289,"station_id":227,"station_name":"Great Percy Street, Clerkenwell","ntrips":0},{"longitude":-0.134621,"latitude":51.5074,"station_id":228,"station_name":"St. James's Square, St. James's","ntrips":0},{"longitude":-0.12318,"latitude":51.5065,"station_id":229,"station_name":"Whitehall Place, Strand","ntrips":0},{"longitude":-0.103137,"latitude":51.5067,"station_id":230,"station_name":"Poured Lines, Bankside","ntrips":0},{"longitude":-0.178732,"latitude":51.494,"station_id":231,"station_name":"Queen's Gate (Central), South Kensington","ntrips":1},{"longitude":-0.112753,"latitude":51.515,"station_id":232,"station_name":"Carey Street, Holborn","ntrips":1},{"longitude":-0.1307,"latitude":51.5078,"station_id":233,"station_name":"Pall Mall East, West End","ntrips":0},{"longitude":-0.106993,"latitude":51.5345,"station_id":234,"station_name":"Liverpool Road (N1 Centre), Angel","ntrips":2},{"longitude":-0.110889,"latitude":51.4957,"station_id":235,"station_name":"Kennington Road, Vauxhall","ntrips":1},{"longitude":-0.0734389,"latitude":51.5184,"station_id":236,"station_name":"Fashion Street, Whitechapel","ntrips":1},{"longitude":-0.0671764,"latitude":51.5084,"station_id":237,"station_name":"Dock Street, Wapping","ntrips":3},{"longitude":-0.175116,"latitude":51.5234,"station_id":238,"station_name":"Frampton Street, Paddington","ntrips":0},{"longitude":-0.138019,"latitude":51.5244,"station_id":239,"station_name":"Warren Street Station, Euston","ntrips":8},{"longitude":-0.105692,"latitude":51.5055,"station_id":240,"station_name":"Colombo Street, Southwark","ntrips":3},{"longitude":-0.151359,"latitude":51.522,"station_id":242,"station_name":"Beaumont Street, Marylebone","ntrips":1},{"longitude":-0.139625,"latitude":51.491,"station_id":243,"station_name":"Gloucester Street, Pimlico","ntrips":2},{"longitude":-0.128585,"latitude":51.5161,"station_id":244,"station_name":"Earnshaw Street, Covent Garden","ntrips":0},{"longitude":-0.142207,"latitude":51.4854,"station_id":245,"station_name":"Grosvenor Road, Pimlico","ntrips":0},{"longitude":-0.0999941,"latitude":51.5229,"station_id":246,"station_name":"Berry Street, Clerkenwell","ntrips":2},{"longitude":-0.168314,"latitude":51.5301,"station_id":247,"station_name":"St. John's Wood Church, The Regent's Park","ntrips":2},{"longitude":-0.17028,"latitude":51.5065,"station_id":248,"station_name":"Triangle Car Park, Hyde Park","ntrips":0},{"longitude":-0.0961911,"latitude":51.4986,"station_id":249,"station_name":"Harper Road, The Borough","ntrips":1},{"longitude":-0.162727,"latitude":51.4899,"station_id":250,"station_name":"Royal Avenue 1, Chelsea","ntrips":0},{"longitude":-0.079249,"latitude":51.5189,"station_id":251,"station_name":"Brushfield Street, Liverpool Street","ntrips":6},{"longitude":-0.116542,"latitude":51.5046,"station_id":252,"station_name":"Jubilee Gardens, South Bank","ntrips":0},{"longitude":-0.0863797,"latitude":51.534,"station_id":253,"station_name":"Shoreditch Park, Hoxton","ntrips":1},{"longitude":-0.106408,"latitude":51.5305,"station_id":254,"station_name":"Chadwell Street, Angel","ntrips":1},{"longitude":-0.179593,"latitude":51.5256,"station_id":255,"station_name":"Clifton Road, Maida Vale","ntrips":2},{"longitude":-0.116764,"latitude":51.5136,"station_id":256,"station_name":"Houghton Street, Strand","ntrips":5},{"longitude":-0.154907,"latitude":51.5225,"station_id":257,"station_name":"Westminster University, Marylebone","ntrips":0},{"longitude":-0.178657,"latitude":51.5014,"station_id":258,"station_name":"Kensington Gore, Knightsbridge","ntrips":0},{"longitude":-0.123248,"latitude":51.5049,"station_id":259,"station_name":"Bourne Street, Belgravia","ntrips":2},{"longitude":-0.135581,"latitude":51.5137,"station_id":260,"station_name":"Broadwick Street, Soho","ntrips":0},{"longitude":-0.191351,"latitude":51.5135,"station_id":261,"station_name":"Princes Square, Bayswater","ntrips":1},{"longitude":-0.103133,"latitude":51.4987,"station_id":262,"station_name":"LSBU (Borough Road), Elephant & Castle","ntrips":0},{"longitude":-0.0806601,"latitude":51.5142,"station_id":263,"station_name":"St. Mary Axe, Aldgate","ntrips":3},{"longitude":-0.109257,"latitude":51.5264,"station_id":264,"station_name":"Tysoe Street, Clerkenwell","ntrips":2},{"longitude":-0.169249,"latitude":51.516,"station_id":265,"station_name":"Southwick Street, Paddington","ntrips":1},{"longitude":-0.180246,"latitude":51.501,"station_id":266,"station_name":"Queen's Gate (North), Kensington","ntrips":2},{"longitude":-0.132225,"latitude":51.4921,"station_id":267,"station_name":"Regency Street, Westminster","ntrips":2},{"longitude":-0.144133,"latitude":51.4932,"station_id":268,"station_name":"Belgrave Road, Victoria","ntrips":2},{"longitude":-0.0897408,"latitude":51.5008,"station_id":269,"station_name":"Empire Square, The Borough","ntrips":1},{"longitude":-0.122492,"latitude":51.4863,"station_id":270,"station_name":"Kennington Lane Rail Bridge, Vauxhall","ntrips":7},{"longitude":-0.156285,"latitude":51.5358,"station_id":271,"station_name":"London Zoo, The Regent's Park","ntrips":0},{"longitude":-0.110699,"latitude":51.5014,"station_id":272,"station_name":"Baylis Road, Waterloo","ntrips":4},{"longitude":-0.114686,"latitude":51.5061,"station_id":273,"station_name":"Belvedere Road 1, South Bank","ntrips":1},{"longitude":-0.205284,"latitude":51.4967,"station_id":274,"station_name":"Warwick Road, Olympia","ntrips":4},{"longitude":-0.0921764,"latitude":51.52,"station_id":275,"station_name":"Barbican Centre, Barbican","ntrips":1},{"longitude":-0.0849854,"latitude":51.5093,"station_id":276,"station_name":"Lower Thames Street, Monument","ntrips":1},{"longitude":-0.191496,"latitude":51.5032,"station_id":277,"station_name":"Kensington Church Street, Kensington","ntrips":0},{"longitude":-0.079621,"latitude":51.5035,"station_id":278,"station_name":"Tooley Street, Bermondsey","ntrips":2},{"longitude":-0.176646,"latitude":51.5186,"station_id":279,"station_name":"North Wharf Road, Paddington","ntrips":1},{"longitude":-0.162727,"latitude":51.4899,"station_id":280,"station_name":"Royal Avenue 2, Chelsea","ntrips":2},{"longitude":-0.127575,"latitude":51.4958,"station_id":281,"station_name":"Smith Square, Westminster","ntrips":3},{"longitude":-0.0596421,"latitude":51.5191,"station_id":282,"station_name":"Royal London Hospital, Whitechapel","ntrips":4},{"longitude":-0.118479,"latitude":51.5144,"station_id":283,"station_name":"Kingsway, Covent Garden","ntrips":0},{"longitude":-0.112031,"latitude":51.4991,"station_id":284,"station_name":"Lambeth North Station, Waterloo","ntrips":1},{"longitude":-0.174654,"latitude":51.5273,"station_id":286,"station_name":"St. John's Wood Road, St. John's Wood","ntrips":1},{"longitude":-0.128378,"latitude":51.5237,"station_id":287,"station_name":"Bedford Way, Bloomsbury","ntrips":1},{"longitude":-0.147479,"latitude":51.4924,"station_id":288,"station_name":"Elizabeth Bridge, Victoria","ntrips":3},{"longitude":-0.151296,"latitude":51.5092,"station_id":289,"station_name":"South Audley Street, Mayfair","ntrips":1},{"longitude":-0.1711032,"latitude":51.518268,"station_id":290,"station_name":"St Mary's Hospital, Westminster","ntrips":5},{"longitude":-0.138089,"latitude":51.4848,"station_id":291,"station_name":"Claverton Street, Pimlico","ntrips":1},{"longitude":-0.165472,"latitude":51.4989,"station_id":292,"station_name":"Montpelier Street, Knightsbridge","ntrips":1},{"longitude":-0.209494,"latitude":51.4982,"station_id":293,"station_name":"Kensington Olympia Station, Olympia","ntrips":1},{"longitude":-0.135636,"latitude":51.4882,"station_id":294,"station_name":"St. George's Square, Pimlico","ntrips":1},{"longitude":-0.0927627,"latitude":51.5003,"station_id":295,"station_name":"Swan Street, The Borough","ntrips":2},{"longitude":-0.190603,"latitude":51.4936,"station_id":296,"station_name":"Knaresborough Place, Earl's Court","ntrips":0},{"longitude":-0.106001,"latitude":51.4961,"station_id":297,"station_name":"Geraldine Street, Elephant & Castle","ntrips":3},{"longitude":-0.0741892,"latitude":51.5023,"station_id":298,"station_name":"Curlew Street, Shad Thames","ntrips":3},{"longitude":-0.136929,"latitude":51.494,"station_id":299,"station_name":"Vincent Square, Westminster","ntrips":0},{"longitude":-0.17273,"latitude":51.505,"station_id":300,"station_name":"Serpentine Car Park, Hyde Park","ntrips":5},{"longitude":-0.148105,"latitude":51.5148,"station_id":301,"station_name":"Marylebone Lane, Marylebone","ntrips":2},{"longitude":-0.216573,"latitude":51.4669,"station_id":302,"station_name":"Putney Pier, Wandsworth","ntrips":0},{"longitude":-0.158456,"latitude":51.503,"station_id":303,"station_name":"Albert Gate, Hyde Park","ntrips":2},{"longitude":-0.115854,"latitude":51.4868,"station_id":305,"station_name":"Kennington Lane Tesco, Vauxhall","ntrips":0},{"longitude":-0.135026,"latitude":51.5182,"station_id":306,"station_name":"Rathbone Street, Fitzrovia","ntrips":1},{"longitude":-0.187843,"latitude":51.5099,"station_id":307,"station_name":"Black Lion Gate, Kensington Gardens","ntrips":3},{"longitude":-0.0856663,"latitude":51.4991,"station_id":308,"station_name":"Long Lane, Bermondsey","ntrips":0},{"longitude":-0.119048,"latitude":51.5096,"station_id":309,"station_name":"Embankment (Savoy), Strand","ntrips":1},{"longitude":-0.116912,"latitude":51.4909,"station_id":310,"station_name":"Black Prince Road, Vauxhall","ntrips":0},{"longitude":-0.140486,"latitude":51.5192,"station_id":311,"station_name":"Foley Street, Fitzrovia","ntrips":1},{"longitude":-0.176771,"latitude":51.5309,"station_id":312,"station_name":"Grove End Road, St. John's Wood","ntrips":2},{"longitude":-0.138073,"latitude":51.5173,"station_id":313,"station_name":"Wells Street, Fitzrovia","ntrips":1},{"longitude":-0.0831594,"latitude":51.5009,"station_id":314,"station_name":"Tyers Gate, Bermondsey","ntrips":2},{"longitude":-0.153464,"latitude":51.5254,"station_id":315,"station_name":"The Tennis Courts, The Regent's Park","ntrips":4},{"longitude":-0.1429606,"latitude":51.497998,"station_id":316,"station_name":"Warwick Row, Westminster","ntrips":3},{"longitude":-0.0939135,"latitude":51.4968,"station_id":317,"station_name":"Dickens Square, Borough","ntrips":2},{"longitude":-0.138846,"latitude":51.51,"station_id":318,"station_name":"Sackville Street, Mayfair","ntrips":0},{"longitude":-0.0885428,"latitude":51.527,"station_id":319,"station_name":"Baldwin Street, St. Luke's","ntrips":6},{"longitude":-0.139956,"latitude":51.4936,"station_id":320,"station_name":"Queen Mother Sports Centre, Victoria","ntrips":0},{"longitude":-0.081608,"latitude":51.4979,"station_id":321,"station_name":"Bermondsey Street, Bermondsey","ntrips":2},{"longitude":-0.073955,"latitude":51.5263,"station_id":322,"station_name":"Palissy Street, Shoreditch","ntrips":0},{"longitude":-0.083067,"latitude":51.5232,"station_id":323,"station_name":"Clifton Street, Shoreditch","ntrips":3},{"longitude":-0.101384,"latitude":51.4965,"station_id":324,"station_name":"Ontario Street, Elephant & Castle","ntrips":1},{"longitude":-0.129698,"latitude":51.5091,"station_id":325,"station_name":"St. Martin's Street, West End","ntrips":1},{"longitude":-0.0999811,"latitude":51.5327,"station_id":326,"station_name":"Graham Street, Angel","ntrips":3},{"longitude":-0.086016,"latitude":51.5311,"station_id":327,"station_name":"New North Road 1, Hoxton","ntrips":1},{"longitude":-0.086016,"latitude":51.5311,"station_id":328,"station_name":"New North Road 2, Hoxton","ntrips":0},{"longitude":-0.160854,"latitude":51.5359,"station_id":329,"station_name":"Prince Albert Road, The Regent's Park","ntrips":1},{"longitude":-0.179135,"latitude":51.5164,"station_id":330,"station_name":"Eastbourne Mews, Paddington","ntrips":0},{"longitude":-0.0898879,"latitude":51.5209,"station_id":331,"station_name":"Bunhill Row, Moorgate","ntrips":2},{"longitude":-0.194758,"latitude":51.4933,"station_id":332,"station_name":"Nevern Place, Earl's Court","ntrips":1},{"longitude":-0.193764,"latitude":51.5086,"station_id":333,"station_name":"Palace Gardens Terrace, Notting Hill","ntrips":0},{"longitude":-0.115851,"latitude":51.505,"station_id":334,"station_name":"Concert Hall Approach 1, South Bank","ntrips":0},{"longitude":-0.120719,"latitude":51.512,"station_id":335,"station_name":"Tavistock Street, Covent Garden","ntrips":0},{"longitude":-0.115851,"latitude":51.505,"station_id":336,"station_name":"Concert Hall Approach 2, South Bank","ntrips":2},{"longitude":-0.197525,"latitude":51.5111,"station_id":337,"station_name":"Pembridge Villas, Notting Hill","ntrips":0},{"longitude":-0.119643,"latitude":51.5118,"station_id":338,"station_name":"Wellington Street, Strand","ntrips":1},{"longitude":-0.111781,"latitude":51.5333,"station_id":339,"station_name":"Risinghill Street, Angel","ntrips":0},{"longitude":-0.0875874,"latitude":51.5144,"station_id":340,"station_name":"Bank of England Museum, Bank","ntrips":3},{"longitude":-0.126021,"latitude":51.5081,"station_id":341,"station_name":"Craven Street, Strand","ntrips":6},{"longitude":-0.150181,"latitude":51.5369,"station_id":343,"station_name":"London Zoo Car Park, The Regent's Park","ntrips":0},{"longitude":-0.101026,"latitude":51.5282,"station_id":344,"station_name":"Goswell Road (City Uni), Finsbury","ntrips":1},{"longitude":-0.166879,"latitude":51.488,"station_id":345,"station_name":"Flood Street, Chelsea","ntrips":5},{"longitude":-0.113936,"latitude":51.5001,"station_id":347,"station_name":"Lower Marsh, Waterloo","ntrips":3},{"longitude":-0.150481,"latitude":51.5122,"station_id":348,"station_name":"Grosvenor Square, Mayfair","ntrips":3},{"longitude":-0.142783,"latitude":51.512,"station_id":349,"station_name":"St. George Street, Mayfair","ntrips":2},{"longitude":-0.179854,"latitude":51.5017,"station_id":350,"station_name":"Queen's Gate, Kensington Gardens","ntrips":2},{"longitude":-0.097122,"latitude":51.5294,"station_id":351,"station_name":"Macclesfield Rd, St Lukes","ntrips":1},{"longitude":-0.116625,"latitude":51.487,"station_id":352,"station_name":"Vauxhall Street, Vauxhall","ntrips":1},{"longitude":-0.134234,"latitude":51.4946,"station_id":353,"station_name":"Greycoat Street, Westminster","ntrips":0},{"longitude":-0.123702,"latitude":51.5068,"station_id":354,"station_name":"Northumberland Avenue, Strand","ntrips":0},{"longitude":-0.117286,"latitude":51.4866,"station_id":355,"station_name":"Oval Way, Vauxhall","ntrips":0},{"longitude":-0.173881,"latitude":51.4944,"station_id":356,"station_name":"South Kensington Station, South Kensington","ntrips":2},{"longitude":-0.139016,"latitude":51.521,"station_id":357,"station_name":"Howland Street, Fitzrovia","ntrips":2},{"longitude":-0.124332,"latitude":51.5164,"station_id":358,"station_name":"High Holborn, Covent Garden","ntrips":1},{"longitude":-0.135441,"latitude":51.4978,"station_id":359,"station_name":"Butler Place, Westminster","ntrips":0},{"longitude":-0.138734,"latitude":51.4968,"station_id":360,"station_name":"Howick Place, Westminster","ntrips":1},{"longitude":-0.113864,"latitude":51.504,"station_id":361,"station_name":"Waterloo Station 2, Waterloo","ntrips":3},{"longitude":-0.133952,"latitude":51.5363,"station_id":362,"station_name":"Royal College Street, Camden Town","ntrips":0},{"longitude":-0.171185,"latitude":51.5291,"station_id":363,"station_name":"Lord's, St. John's Wood","ntrips":0},{"longitude":-0.132339,"latitude":51.5197,"station_id":364,"station_name":"Alfred Place, Bloomsbury","ntrips":0},{"longitude":-0.100168,"latitude":51.5303,"station_id":365,"station_name":"City Road, Angel","ntrips":0},{"longitude":-0.151126,"latitude":51.5109,"station_id":366,"station_name":"Millennium Hotel, Mayfair","ntrips":0},{"longitude":-0.164208,"latitude":51.5174,"station_id":367,"station_name":"Harrowby Street, Marylebone","ntrips":3},{"longitude":-0.159341,"latitude":51.5002,"station_id":368,"station_name":"Harriet Street, Knightsbridge","ntrips":1},{"longitude":-0.174593,"latitude":51.5202,"station_id":370,"station_name":"Paddington Green, Paddington","ntrips":1},{"longitude":-0.10988,"latitude":51.4978,"station_id":371,"station_name":"King Edward Walk, Waterloo","ntrips":0},{"longitude":-0.117863,"latitude":51.5152,"station_id":372,"station_name":"Sardinia Street, Holborn","ntrips":2},{"longitude":-0.176416,"latitude":51.4998,"station_id":373,"station_name":"Prince Consort Road, Knightsbridge","ntrips":0},{"longitude":-0.113864,"latitude":51.504,"station_id":374,"station_name":"Waterloo Station 1, Waterloo","ntrips":10},{"longitude":-0.194393,"latitude":51.5019,"station_id":375,"station_name":"Kensington Town Hall, Kensington","ntrips":0},{"longitude":-0.125675,"latitude":51.4919,"station_id":376,"station_name":"Millbank Tower, Pimlico","ntrips":1},{"longitude":-0.113657,"latitude":51.5054,"station_id":377,"station_name":"Waterloo Bridge, South Bank","ntrips":1},{"longitude":-0.179078,"latitude":51.4956,"station_id":378,"station_name":"Natural History Museum, South Kensington","ntrips":1},{"longitude":-0.200838,"latitude":51.5143,"station_id":379,"station_name":"Turquoise Island, Notting Hill","ntrips":3},{"longitude":-0.150667,"latitude":51.5069,"station_id":380,"station_name":"Stanhope Gate, Mayfair","ntrips":3},{"longitude":-0.135777,"latitude":51.5195,"station_id":381,"station_name":"Charlotte Street, Fitzrovia","ntrips":2},{"longitude":-0.14745,"latitude":51.5094,"station_id":382,"station_name":"Farm Street, Mayfair","ntrips":1},{"longitude":-0.131214,"latitude":51.5131,"station_id":383,"station_name":"Frith Street, Soho","ntrips":0},{"longitude":-0.192404,"latitude":51.4965,"station_id":384,"station_name":"Marloes Road, Kensington","ntrips":0},{"longitude":-0.130111,"latitude":51.5135,"station_id":386,"station_name":"Moor Street, Soho","ntrips":0},{"longitude":-0.121394,"latitude":51.4937,"station_id":387,"station_name":"Fire Brigade Pier, Vauxhall","ntrips":4},{"longitude":-0.121724,"latitude":51.5107,"station_id":388,"station_name":"Southampton Street, Strand","ntrips":1},{"longitude":-0.155758,"latitude":51.5101,"station_id":389,"station_name":"Upper Grosvenor Street, Mayfair","ntrips":0},{"longitude":-0.068856,"latitude":51.5218,"station_id":390,"station_name":"Buxton Street 1, Shoreditch","ntrips":1},{"longitude":-0.142361,"latitude":51.51068,"station_id":391,"station_name":"Clifford Street, Mayfair","ntrips":3},{"longitude":-0.179702,"latitude":51.4994,"station_id":392,"station_name":"Imperial College, Knightsbridge","ntrips":2},{"longitude":-0.103604,"latitude":51.5173,"station_id":393,"station_name":"Snow Hill, Farringdon","ntrips":2},{"longitude":-0.176268,"latitude":51.5248,"station_id":394,"station_name":"Aberdeen Place, St. John's Wood","ntrips":0},{"longitude":-0.159919,"latitude":51.4925,"station_id":395,"station_name":"Cadogan Gardens, Chelsea","ntrips":0},{"longitude":-0.163609,"latitude":51.5181,"station_id":396,"station_name":"Shouldham Street, Marylebone","ntrips":0},{"longitude":-0.17977,"latitude":51.5135,"station_id":397,"station_name":"Devonshire Terrace, Bayswater","ntrips":0},{"longitude":-0.200742,"latitude":51.5023,"station_id":398,"station_name":"Holland Park, Kensington","ntrips":2},{"longitude":-0.071654,"latitude":51.5226,"station_id":399,"station_name":"Brick Lane Market, Shoreditch","ntrips":0},{"longitude":-0.154106,"latitude":51.5177,"station_id":400,"station_name":"George Street, Marylebone","ntrips":2},{"longitude":-0.075375,"latitude":51.5282,"station_id":401,"station_name":"Columbia Road, Shoreditch","ntrips":1},{"longitude":-0.171682,"latitude":51.5229,"station_id":402,"station_name":"Penfold Street, Marylebone","ntrips":1},{"longitude":-0.15825,"latitude":51.5169,"station_id":403,"station_name":"George Place Mews, Marylebone","ntrips":3},{"longitude":-0.1844,"latitude":51.502,"station_id":404,"station_name":"Palace Gate, Kensington Gardens","ntrips":2},{"longitude":-0.182671,"latitude":51.4942,"station_id":405,"station_name":"Gloucester Road Station, South Kensington","ntrips":2},{"longitude":-0.170704,"latitude":51.5199,"station_id":408,"station_name":"Paddington Green Police Station, Paddington","ntrips":0},{"longitude":-0.099828,"latitude":51.4931,"station_id":409,"station_name":"Strata, Elephant & Castle","ntrips":0},{"longitude":-0.169774,"latitude":51.52,"station_id":410,"station_name":"Edgware Road Station, Marylebone","ntrips":1},{"longitude":-0.0996807,"latitude":51.4934,"station_id":411,"station_name":"Walworth Road, Elephant & Castle","ntrips":0},{"longitude":-0.110121,"latitude":51.4881,"station_id":412,"station_name":"Cleaver Street, Kennington","ntrips":1},{"longitude":-0.149004,"latitude":51.4858,"station_id":419,"station_name":"Chelsea Bridge, Pimlico","ntrips":1},{"longitude":-0.105312,"latitude":51.504,"station_id":420,"station_name":"Southwark Station 1, Southwark","ntrips":0},{"longitude":-0.105312,"latitude":51.504,"station_id":421,"station_name":"Southwark Station 2, Southwark","ntrips":1},{"longitude":-0.153934,"latitude":51.4946,"station_id":423,"station_name":"Eaton Square (South), Belgravia","ntrips":0},{"longitude":-0.149186,"latitude":51.4905,"station_id":424,"station_name":"Ebury Bridge, Pimlico","ntrips":1},{"longitude":-0.139159,"latitude":51.5334,"station_id":425,"station_name":"Harrington Square 2, Camden Town","ntrips":0},{"longitude":-0.129925,"latitude":51.4931,"station_id":426,"station_name":"Vincent Street, Pimlico","ntrips":0},{"longitude":-0.0929403,"latitude":51.514,"station_id":427,"station_name":"Cheapside, Bank","ntrips":7},{"longitude":-0.174554,"latitude":51.4999,"station_id":428,"station_name":"Exhibition Road, Knightsbridge","ntrips":2},{"longitude":-0.17524,"latitude":51.489,"station_id":430,"station_name":"South Parade, Chelsea","ntrips":4},{"longitude":-0.122203,"latitude":51.5345,"station_id":431,"station_name":"Crinan Street, King's Cross","ntrips":1},{"longitude":-0.173894,"latitude":51.497,"station_id":432,"station_name":"Exhibition Road Museums, South Kensington","ntrips":0},{"longitude":-0.116279,"latitude":51.5246,"station_id":433,"station_name":"Wren Street, Holborn","ntrips":2},{"longitude":-0.105593,"latitude":51.4889,"station_id":435,"station_name":"Kennington Station, Kennington","ntrips":1},{"longitude":-0.11655,"latitude":51.5182,"station_id":436,"station_name":"Red Lion Street, Holborn","ntrips":3},{"longitude":-0.120903,"latitude":51.4881,"station_id":437,"station_name":"Vauxhall Walk, Vauxhall","ntrips":1},{"longitude":-0.118677,"latitude":51.5338,"station_id":439,"station_name":"Killick Street, King's Cross","ntrips":0},{"longitude":-0.113134,"latitude":51.4831,"station_id":440,"station_name":"Kennington Oval, Oval","ntrips":3},{"longitude":-0.114605,"latitude":51.4957,"station_id":441,"station_name":"Sail Street, Vauxhall","ntrips":0},{"longitude":-0.211358,"latitude":51.5101,"station_id":442,"station_name":"Walmer Road, Avondale","ntrips":0},{"longitude":-0.058641,"latitude":51.5153,"station_id":443,"station_name":"Philpot Street, Whitechapel","ntrips":4},{"longitude":-0.055312,"latitude":51.5257,"station_id":444,"station_name":"Bethnal Green Garden, Bethnal Green","ntrips":0},{"longitude":-0.065076,"latitude":51.5239,"station_id":445,"station_name":"Cheshire Street, Bethnal Green","ntrips":1},{"longitude":-0.055894,"latitude":51.5289,"station_id":446,"station_name":"York Hall, Bethnal Green","ntrips":1},{"longitude":-0.007542,"latitude":51.4934,"station_id":447,"station_name":"Jubilee Crescent, Cubitt Town","ntrips":0},{"longitude":-0.02296,"latitude":51.5062,"station_id":448,"station_name":"Fisherman's Walk West, Canary Wharf","ntrips":0},{"longitude":-0.057159,"latitude":51.5111,"station_id":449,"station_name":"Shadwell Station, Shadwell","ntrips":1},{"longitude":-0.053177,"latitude":51.516,"station_id":450,"station_name":"Jubilee Street, Stepney","ntrips":0},{"longitude":-0.063531,"latitude":51.5047,"station_id":451,"station_name":"Hermitage Court, Wapping","ntrips":4},{"longitude":-0.070542,"latitude":51.5057,"station_id":452,"station_name":"St. Katharine's Way, Tower","ntrips":0},{"longitude":-0.055167,"latitude":51.5084,"station_id":453,"station_name":"Garnet Street, Shadwell","ntrips":2},{"longitude":-0.021582,"latitude":51.4877,"station_id":454,"station_name":"Napier Avenue, Millwall","ntrips":0},{"longitude":-0.014409,"latitude":51.4945,"station_id":455,"station_name":"East Ferry Road, Cubitt Town","ntrips":0},{"longitude":-0.144664,"latitude":51.5381,"station_id":456,"station_name":"Parkway, Camden Town","ntrips":2},{"longitude":-0.145393,"latitude":51.5421,"station_id":457,"station_name":"Castlehaven Road, Camden Town","ntrips":1},{"longitude":-0.057544,"latitude":51.5047,"station_id":458,"station_name":"Wapping Lane, Wapping","ntrips":4},{"longitude":-0.03338,"latitude":51.5352,"station_id":459,"station_name":"Gunmakers Lane, Old Ford","ntrips":1},{"longitude":-0.029138,"latitude":51.5162,"station_id":460,"station_name":"Burdett Road, Mile End","ntrips":1},{"longitude":-0.038775,"latitude":51.516,"station_id":461,"station_name":"Aston Street, Stepney","ntrips":0},{"longitude":-0.138853,"latitude":51.5416,"station_id":462,"station_name":"Bonny Street, Camden Town","ntrips":0},{"longitude":-0.071881,"latitude":51.5348,"station_id":463,"station_name":"Thurtle road, Haggerston","ntrips":0},{"longitude":-0.052099,"latitude":51.5142,"station_id":464,"station_name":"St. Mary & St. Michael Church, Stepney","ntrips":0},{"longitude":-0.08249,"latitude":51.5356,"station_id":465,"station_name":"Pitfield Street North,Hoxton","ntrips":1},{"longitude":-0.076341,"latitude":51.5345,"station_id":466,"station_name":"Whiston Road, Haggerston","ntrips":0},{"longitude":-0.030556,"latitude":51.5235,"station_id":467,"station_name":"Southern Grove, Bow","ntrips":1},{"longitude":-0.022694,"latitude":51.5216,"station_id":468,"station_name":"Cantrell Road, Bow","ntrips":0},{"longitude":-0.020467,"latitude":51.5138,"station_id":469,"station_name":"Lindfield Street, Poplar","ntrips":0},{"longitude":-0.025492,"latitude":51.5305,"station_id":470,"station_name":"Mostyn Grove, Bow","ntrips":4},{"longitude":-0.028155,"latitude":51.5333,"station_id":471,"station_name":"Hewison Street, Old Ford","ntrips":1},{"longitude":-0.027616,"latitude":51.5295,"station_id":472,"station_name":"Malmesbury Road, Bow","ntrips":0},{"longitude":-0.019355,"latitude":51.4961,"station_id":473,"station_name":"Millharbour, Millwall","ntrips":0},{"longitude":-0.011457,"latitude":51.4981,"station_id":474,"station_name":"Castalia Square, Cubitt Town","ntrips":0},{"longitude":-0.020157,"latitude":51.499,"station_id":475,"station_name":"Lightermans Road, Millwall","ntrips":0},{"longitude":-0.009205,"latitude":51.4891,"station_id":476,"station_name":"Stebondale Street, Cubitt Town","ntrips":0},{"longitude":-0.018716,"latitude":51.4911,"station_id":477,"station_name":"Spindrift Avenue, Millwall","ntrips":0},{"longitude":-0.04667,"latitude":51.5219,"station_id":478,"station_name":"Stepney Green Station, Stepney","ntrips":2},{"longitude":-0.058005,"latitude":51.5272,"station_id":479,"station_name":"Pott Street, Bethnal Green","ntrips":1},{"longitude":-0.0389866,"latitude":51.5129,"station_id":480,"station_name":"Flamborough Street, Limehouse","ntrips":4},{"longitude":-0.009001,"latitude":51.4871,"station_id":481,"station_name":"Saunders Ness Road, Cubitt Town","ntrips":0},{"longitude":-0.02377,"latitude":51.5098,"station_id":482,"station_name":"Thornfield House, Poplar","ntrips":1},{"longitude":-0.047784,"latitude":51.5133,"station_id":483,"station_name":"Albert Gardens, Stepney","ntrips":1},{"longitude":-0.013258,"latitude":51.5288,"station_id":484,"station_name":"Bromley High Street, Bow","ntrips":1},{"longitude":-0.048017,"latitude":51.5311,"station_id":485,"station_name":"Old Ford Road, Bethnal Green","ntrips":0},{"longitude":-0.069543,"latitude":51.5256,"station_id":486,"station_name":"Granby Street, Shoreditch","ntrips":1},{"longitude":-0.025626,"latitude":51.5118,"station_id":487,"station_name":"Canton Street, Poplar","ntrips":0},{"longitude":-0.058681,"latitude":51.5069,"station_id":488,"station_name":"Reardon Street, Wapping","ntrips":1},{"longitude":-0.064094,"latitude":51.5131,"station_id":489,"station_name":"Christian Street, Whitechapel","ntrips":2},{"longitude":-0.065006,"latitude":51.5086,"station_id":490,"station_name":"Pennington Street, Wapping","ntrips":1},{"longitude":-0.041378,"latitude":51.5225,"station_id":491,"station_name":"Queen Mary's, Mile End","ntrips":0},{"longitude":-0.03562,"latitude":51.5247,"station_id":492,"station_name":"The Green Bridge, Mile End","ntrips":0},{"longitude":-0.016251,"latitude":51.502,"station_id":494,"station_name":"South Quay East, Canary Wharf","ntrips":0},{"longitude":-0.018703,"latitude":51.5282,"station_id":495,"station_name":"Bow Church Station, Bow","ntrips":2},{"longitude":-0.015578,"latitude":51.5251,"station_id":496,"station_name":"Devons Road, Bow","ntrips":0},{"longitude":-0.028619,"latitude":51.5265,"station_id":497,"station_name":"Merchant Street, Bow","ntrips":0},{"longitude":-0.025296,"latitude":51.5271,"station_id":498,"station_name":"Bow Road Station, Bow","ntrips":3},{"longitude":-0.021345,"latitude":51.5193,"station_id":499,"station_name":"Furze Green, Bow","ntrips":0},{"longitude":-0.055731,"latitude":51.5198,"station_id":500,"station_name":"Ansell House, Stepney","ntrips":2},{"longitude":-0.054883,"latitude":51.5226,"station_id":501,"station_name":"Cephas Street, Bethnal Green","ntrips":1},{"longitude":-0.0495918,"latitude":51.3341,"station_id":502,"station_name":"Bonner Gate, Victoria Park","ntrips":4},{"longitude":-0.051394,"latitude":51.5209,"station_id":503,"station_name":"Cleveland Way, Stepney","ntrips":1},{"longitude":-0.009506,"latitude":51.4965,"station_id":504,"station_name":"St. John's Park, Cubitt Town","ntrips":0},{"longitude":-0.026768,"latitude":51.5204,"station_id":505,"station_name":"Ackroyd Drive, Bow","ntrips":1},{"longitude":-0.075855,"latitude":51.5175,"station_id":506,"station_name":"Bell Lane, Liverpool Street","ntrips":0},{"longitude":-0.059091,"latitude":51.5287,"station_id":507,"station_name":"Clarkson Street, Bethnal Green","ntrips":2},{"longitude":-0.074431,"latitude":51.5194,"station_id":508,"station_name":"Fournier Street, Whitechapel","ntrips":1},{"longitude":-0.090075,"latitude":51.5178,"station_id":509,"station_name":"Fore Street, Guildhall","ntrips":0},{"longitude":-0.025996,"latitude":51.5093,"station_id":510,"station_name":"Westferry DLR, Limehouse","ntrips":4},{"longitude":-0.053558,"latitude":51.5111,"station_id":511,"station_name":"Sutton Street, Shadwell","ntrips":1},{"longitude":-0.06142,"latitude":51.5321,"station_id":512,"station_name":"Pritchard's Road, Bethnal Green","ntrips":5},{"longitude":-0.055656,"latitude":51.5142,"station_id":513,"station_name":"Watney Market, Stepney","ntrips":3},{"longitude":-0.155525,"latitude":51.5162,"station_id":514,"station_name":"Portman Square, Marylebone","ntrips":0},{"longitude":-0.211316,"latitude":51.5001,"station_id":515,"station_name":"Russell Gardens, Olympia","ntrips":2},{"longitude":-0.014438,"latitude":51.5112,"station_id":516,"station_name":"Chrisp Street Market, Poplar","ntrips":0},{"longitude":-0.033085,"latitude":51.5325,"station_id":517,"station_name":"Ford Road, Old Ford","ntrips":0},{"longitude":-0.037471,"latitude":51.5282,"station_id":518,"station_name":"Antill Road, Mile End","ntrips":0},{"longitude":-0.011662,"latitude":51.5188,"station_id":519,"station_name":"Teviot Street, Poplar","ntrips":0},{"longitude":-0.047218,"latitude":51.526,"station_id":520,"station_name":"Bancroft Road, Bethnal Green","ntrips":0},{"longitude":-0.037366,"latitude":51.5341,"station_id":521,"station_name":"Driffield Road, Old Ford","ntrips":0},{"longitude":-0.036017,"latitude":51.5259,"station_id":522,"station_name":"Clinton Road, Mile End","ntrips":2},{"longitude":-0.013475,"latitude":51.5155,"station_id":523,"station_name":"Langdon Park, Poplar","ntrips":1},{"longitude":-0.179668,"latitude":51.5117,"station_id":524,"station_name":"Lancaster Gate, Bayswater","ntrips":1},{"longitude":-0.014293,"latitude":51.5047,"station_id":525,"station_name":"Cartier Circle, Canary Wharf","ntrips":0},{"longitude":-0.008428,"latitude":51.5031,"station_id":526,"station_name":"Lancaster Drive, Blackwall","ntrips":0},{"longitude":-0.215808,"latitude":51.5038,"station_id":527,"station_name":"Hansard Mews, Holland Park","ntrips":0},{"longitude":-0.145827,"latitude":51.5073,"station_id":528,"station_name":"Clarges Street, Mayfair","ntrips":3},{"longitude":-0.170983,"latitude":51.4869,"station_id":529,"station_name":"Manresa Road, Chelsea","ntrips":3},{"longitude":-0.012413,"latitude":51.5089,"station_id":530,"station_name":"Newby Place, Poplar","ntrips":1},{"longitude":-0.042744,"latitude":51.5303,"station_id":531,"station_name":"Twig Folly Bridge, Mile End","ntrips":2},{"longitude":-0.020068,"latitude":51.5036,"station_id":532,"station_name":"Jubilee Plaza, Canary Wharf","ntrips":2},{"longitude":-0.069743,"latitude":51.5282,"station_id":533,"station_name":"Wellington Row, Bethnal Green","ntrips":4},{"longitude":-0.066035,"latitude":51.5319,"station_id":534,"station_name":"Goldsmith's Row, Haggerston","ntrips":3},{"longitude":-0.147154,"latitude":51.5373,"station_id":535,"station_name":"Gloucester Avenue, Camden Town","ntrips":0},{"longitude":-0.06992,"latitude":51.5339,"station_id":536,"station_name":"Queensbridge Road, Haggerston","ntrips":1},{"longitude":-0.067937,"latitude":51.5179,"station_id":537,"station_name":"Old Montague Street, Whitechapel","ntrips":3},{"longitude":-0.00699,"latitude":51.509,"station_id":538,"station_name":"Naval Row, Blackwall","ntrips":0},{"longitude":-0.075901,"latitude":51.5311,"station_id":539,"station_name":"Hoxton Station, Hoxton","ntrips":0},{"longitude":-0.144466,"latitude":51.5283,"station_id":540,"station_name":"Albany Street, The Regent's Park","ntrips":0},{"longitude":-0.142844,"latitude":51.5066,"station_id":541,"station_name":"Green Park Station, Mayfair","ntrips":0},{"longitude":-0.033828,"latitude":51.5141,"station_id":542,"station_name":"Salmon Lane, Limehouse","ntrips":0},{"longitude":-0.204666,"latitude":51.5096,"station_id":543,"station_name":"Lansdowne Walk, Ladbroke Grove","ntrips":0},{"longitude":-0.102208,"latitude":51.5262,"station_id":544,"station_name":"Percival Street, Finsbury","ntrips":1},{"longitude":-0.145246,"latitude":51.54,"station_id":545,"station_name":"Arlington Road, Camden Town","ntrips":0},{"longitude":-0.107987,"latitude":51.5174,"station_id":546,"station_name":"New Fetter Lane, Holborn","ntrips":2},{"longitude":-0.002275,"latitude":51.5095,"station_id":547,"station_name":"East India DLR, Blackwall","ntrips":0},{"longitude":-0.107913,"latitude":51.4984,"station_id":548,"station_name":"Westminster Bridge Road, Elephant & Castle","ntrips":0},{"longitude":-0.104193,"latitude":51.496,"station_id":549,"station_name":"Gaywood Street, Elephant & Castle","ntrips":2},{"longitude":-0.039264,"latitude":51.5216,"station_id":550,"station_name":"Harford Street, Mile End","ntrips":2},{"longitude":-0.016233,"latitude":51.5034,"station_id":551,"station_name":"Import Dock, Canary Wharf","ntrips":0},{"longitude":-0.056667,"latitude":51.5115,"station_id":552,"station_name":"Watney Street, Shadwell","ntrips":2},{"longitude":-0.062546,"latitude":51.5357,"station_id":553,"station_name":"Regent's Row, Haggerston ","ntrips":7},{"longitude":-0.005659,"latitude":51.5135,"station_id":554,"station_name":"Aberfeldy Street, Poplar","ntrips":0},{"longitude":-0.021596,"latitude":51.5027,"station_id":556,"station_name":"Heron Quays DLR, Canary Wharf","ntrips":1},{"longitude":-0.0985,"latitude":51.516,"station_id":557,"station_name":"King Edward Street, St Pauls","ntrips":3},{"longitude":-0.127554,"latitude":51.494,"station_id":558,"station_name":"Page Street, Westminster","ntrips":2},{"longitude":-0.205991,"latitude":51.5014,"station_id":559,"station_name":"Abbotsbury Road, Holland Park","ntrips":0},{"longitude":-0.205921,"latitude":51.5116,"station_id":560,"station_name":"Ladbroke Grove Central, Ladbroke Grove","ntrips":0},{"longitude":-0.043371,"latitude":51.5184,"station_id":561,"station_name":"Rectory Square, Stepney","ntrips":0},{"longitude":-0.12335,"latitude":51.5175,"station_id":562,"station_name":"Bury Place, Holborn","ntrips":0},{"longitude":-0.009152,"latitude":51.4993,"station_id":563,"station_name":"Preston's Road, Cubitt Town","ntrips":0},{"longitude":-0.117619,"latitude":51.5099,"station_id":564,"station_name":"Somerset House, Strand","ntrips":1},{"longitude":-0.063386,"latitude":51.5219,"station_id":565,"station_name":"Selby Street, Whitechapel","ntrips":0},{"longitude":-0.224103,"latitude":51.5092,"station_id":566,"station_name":"Westfield Ariel Way, White City","ntrips":0},{"longitude":-0.18697,"latitude":51.5162,"station_id":568,"station_name":"Bishop's Bridge Road West, Bayswater","ntrips":5},{"longitude":-0.08299,"latitude":51.5321,"station_id":569,"station_name":"Pitfield Street Central, Hoxton","ntrips":0},{"longitude":-0.017676,"latitude":51.5031,"station_id":570,"station_name":"Upper Bank Street, Canary Wharf","ntrips":0},{"longitude":-0.218337,"latitude":51.5063,"station_id":571,"station_name":"Westfield Southern Terrace,Shepherd's Bush","ntrips":1},{"longitude":-0.141728,"latitude":51.5391,"station_id":572,"station_name":"Greenland Road, Camden Town","ntrips":2},{"longitude":-0.18119,"latitude":51.4856,"station_id":573,"station_name":"Limerston Street, West Chelsea","ntrips":4},{"longitude":-0.09315,"latitude":51.5336,"station_id":574,"station_name":"Eagle Wharf Road, Hoxton","ntrips":2},{"longitude":-0.022793,"latitude":51.4973,"station_id":576,"station_name":"Alpha Grove, Millwall","ntrips":0},{"longitude":-0.047548,"latitude":51.5289,"station_id":577,"station_name":"Globe Town Market, Bethnal Green","ntrips":3},{"longitude":-0.057133,"latitude":51.5276,"station_id":578,"station_name":"Hollybush Gardens, Bethnal Green","ntrips":2},{"longitude":-0.093051,"latitude":51.5112,"station_id":579,"station_name":"Queen Street 2, Bank","ntrips":6},{"longitude":-0.102996,"latitude":51.4869,"station_id":580,"station_name":"Doddington Grove, Kennington","ntrips":2},{"longitude":-0.147983,"latitude":51.5192,"station_id":581,"station_name":"New Cavendish Street, Marylebone","ntrips":1},{"longitude":-0.125978,"latitude":51.4976,"station_id":583,"station_name":"Abingdon Green, Westminster","ntrips":2},{"longitude":-0.19096,"latitude":51.5124,"station_id":584,"station_name":"Ilchester Gardens, Bayswater","ntrips":1},{"longitude":-0.014582,"latitude":51.4906,"station_id":586,"station_name":"Mudchute DLR, Cubitt Town","ntrips":0},{"longitude":-0.08497,"latitude":51.5096,"station_id":587,"station_name":"Monument Street, Monument","ntrips":2},{"longitude":-0.0801,"latitude":51.5296,"station_id":588,"station_name":"Hoxton Street, Hoxton","ntrips":1},{"longitude":-0.179369,"latitude":51.4872,"station_id":589,"station_name":"Drayton Gardens, West Chelsea","ntrips":1},{"longitude":-0.16862,"latitude":51.5326,"station_id":590,"station_name":"Greenberry Street, St.John's Wood","ntrips":0},{"longitude":-0.224224,"latitude":51.5061,"station_id":591,"station_name":"Westfield Library Corner, Shepherd's Bush","ntrips":0},{"longitude":-0.18377,"latitude":51.5171,"station_id":592,"station_name":"Bishop's Bridge Road East, Bayswater","ntrips":1},{"longitude":-0.11934,"latitude":51.5311,"station_id":593,"station_name":"Northdown Street, King's Cross","ntrips":0},{"longitude":-0.117774,"latitude":51.5139,"station_id":594,"station_name":"Kingsway Southbound, Strand","ntrips":2},{"longitude":-0.21985,"latitude":51.4933,"station_id":595,"station_name":"Hammersmith Road, Hammersmith","ntrips":1},{"longitude":-0.199783,"latitude":51.4728,"station_id":596,"station_name":"Parson's Green, Parson's Green","ntrips":1},{"longitude":-0.20782,"latitude":51.4735,"station_id":597,"station_name":"Fulham Park Road, Fulham","ntrips":0},{"longitude":-0.228188,"latitude":51.4945,"station_id":598,"station_name":"Southerton Road, Hammersmith","ntrips":0},{"longitude":-0.223616,"latitude":51.4857,"station_id":599,"station_name":"Manbre Road, Hammersmith","ntrips":0},{"longitude":-0.124642,"latitude":51.4817,"station_id":600,"station_name":"South Lambeth Road, Vauxhall","ntrips":3},{"longitude":-0.225787,"latitude":51.5148,"station_id":601,"station_name":"BBC White City, White City","ntrips":4},{"longitude":-0.133972,"latitude":51.473,"station_id":602,"station_name":"Union Grove, Wandsworth Road","ntrips":1},{"longitude":-0.116493,"latitude":51.4778,"station_id":603,"station_name":"Caldwell Street, Stockwell","ntrips":1},{"longitude":-0.138535,"latitude":51.5388,"station_id":604,"station_name":"St Martins Close, Camden Town","ntrips":2},{"longitude":-0.163667,"latitude":51.5203,"station_id":605,"station_name":"Seymour Place, Marylebone","ntrips":2},{"longitude":-0.210941,"latitude":51.5042,"station_id":606,"station_name":"Addison Road, Holland Park","ntrips":1},{"longitude":-0.210279,"latitude":51.4688,"station_id":607,"station_name":"Putney Bridge Station, Fulham","ntrips":1},{"longitude":-0.216493,"latitude":51.4911,"station_id":608,"station_name":"Colet Gardens, Hammersmith","ntrips":0},{"longitude":-0.157788,"latitude":51.4651,"station_id":609,"station_name":"Sugden Road, Clapham","ntrips":0},{"longitude":-0.172078,"latitude":51.4826,"station_id":610,"station_name":"Danvers Street, West Chelsea","ntrips":1},{"longitude":-0.208487,"latitude":51.5065,"station_id":611,"station_name":"Princedale Road, Holland Park","ntrips":1},{"longitude":-0.141813,"latitude":51.4693,"station_id":612,"station_name":"Wandsworth Rd, Isley Court, Wandsworth Road","ntrips":2},{"longitude":-0.2174,"latitude":51.504,"station_id":613,"station_name":"Woodstock Grove, Shepherd's Bush","ntrips":3},{"longitude":-0.144691,"latitude":51.4782,"station_id":614,"station_name":"Bradmead, Battersea Park","ntrips":3},{"longitude":-0.215896,"latitude":51.4769,"station_id":615,"station_name":"Finlay Street, Fulham","ntrips":0},{"longitude":-0.209973,"latitude":51.481,"station_id":616,"station_name":"Aintree Street, Fulham","ntrips":1},{"longitude":-0.207843,"latitude":51.4711,"station_id":617,"station_name":"Elysium Place, Fulham","ntrips":0},{"longitude":-0.193254,"latitude":51.4763,"station_id":618,"station_name":"Eel Brook Common, Walham Green","ntrips":0},{"longitude":-0.19701,"latitude":51.4738,"station_id":619,"station_name":"Irene Road, Parsons Green","ntrips":1},{"longitude":-0.167161,"latitude":51.4752,"station_id":620,"station_name":"Surrey Lane, Battersea","ntrips":0},{"longitude":-0.187427,"latitude":51.4609,"station_id":621,"station_name":"Wandsworth Town Station, Wandsworth","ntrips":3},{"longitude":-0.205536,"latitude":51.5075,"station_id":622,"station_name":"Lansdowne Road, Ladbroke Grove","ntrips":0},{"longitude":-0.180792,"latitude":51.4619,"station_id":623,"station_name":"Nantes Close, Wandsworth","ntrips":0},{"longitude":-0.132103,"latitude":51.4729,"station_id":624,"station_name":"Courland Grove, Wandsworth Road","ntrips":0},{"longitude":-0.149552,"latitude":51.4776,"station_id":625,"station_name":"Queen's Circus, Battersea Park","ntrips":5},{"longitude":-0.204815,"latitude":51.4844,"station_id":626,"station_name":"Normand Park, West Kensington","ntrips":4},{"longitude":-0.158231,"latitude":51.4688,"station_id":627,"station_name":"Holden Street, Battersea","ntrips":1},{"longitude":-0.184319,"latitude":51.4688,"station_id":628,"station_name":"William Morris Way, Sands End","ntrips":0},{"longitude":-0.190184,"latitude":51.46,"station_id":629,"station_name":"Morie Street, Wandsworth","ntrips":1},{"longitude":-0.126994,"latitude":51.4707,"station_id":630,"station_name":"Clarence Walk, Stockwell","ntrips":1},{"longitude":-0.141771,"latitude":51.4795,"station_id":631,"station_name":"Battersea Park Road, Nine Elms","ntrips":0},{"longitude":-0.163042,"latitude":51.4705,"station_id":632,"station_name":"Sheepcote Lane, Battersea","ntrips":0},{"longitude":-0.209379,"latitude":51.4896,"station_id":633,"station_name":"Vereker Road, West Kensington","ntrips":0},{"longitude":-0.215805,"latitude":51.4943,"station_id":634,"station_name":"Brook Green South, Brook Green","ntrips":0},{"longitude":-0.214428,"latitude":51.4861,"station_id":635,"station_name":"Greyhound Road, Hammersmith","ntrips":1},{"longitude":-0.193502,"latitude":51.4671,"station_id":636,"station_name":"South Park, Sands End","ntrips":3},{"longitude":-0.174692,"latitude":51.4579,"station_id":637,"station_name":"Spencer Park, Wandsworth Common","ntrips":0},{"longitude":-0.169821,"latitude":51.4666,"station_id":638,"station_name":"Falcon Road, Clapham Junction","ntrips":3},{"longitude":-0.202039,"latitude":51.4836,"station_id":639,"station_name":"Coomer Place, West Kensington","ntrips":0},{"longitude":-0.148059,"latitude":51.4729,"station_id":640,"station_name":"Silverthorne Road, Battersea","ntrips":0},{"longitude":-0.117496,"latitude":51.4982,"station_id":641,"station_name":"Archbishop's Park, Waterloo","ntrips":2},{"longitude":-0.174486,"latitude":51.4692,"station_id":642,"station_name":"Fawcett Close, Battersea","ntrips":0},{"longitude":-0.204764,"latitude":51.519,"station_id":643,"station_name":"All Saints' Road, Portobello","ntrips":0},{"longitude":-0.223852,"latitude":51.4837,"station_id":644,"station_name":"Rainville Road, Hammersmith","ntrips":0},{"longitude":-0.100292,"latitude":51.5017,"station_id":645,"station_name":"Great Suffolk Street, The Borough","ntrips":0},{"longitude":-0.137425,"latitude":51.4989,"station_id":646,"station_name":"Buckingham Gate, Westminster","ntrips":1},{"longitude":-0.217515,"latitude":51.5004,"station_id":647,"station_name":"Richmond Way, Shepherd's Bush","ntrips":0},{"longitude":-0.196275,"latitude":51.469,"station_id":648,"station_name":"Peterborough Road, Sands End","ntrips":1},{"longitude":-0.180275,"latitude":51.4818,"station_id":649,"station_name":"World's End Place, West Chelsea","ntrips":2},{"longitude":-0.213872,"latitude":51.5169,"station_id":650,"station_name":"St. Mark's Road, North Kensington","ntrips":2},{"longitude":-0.183854,"latitude":51.4809,"station_id":651,"station_name":"Thorndike Close, West Chelsea","ntrips":1},{"longitude":-0.21819,"latitude":51.5115,"station_id":652,"station_name":"Evesham Street, Avondale","ntrips":1},{"longitude":-0.170704,"latitude":51.4708,"station_id":653,"station_name":"Simpson Street, Clapham Junction","ntrips":2},{"longitude":-0.117662,"latitude":51.4827,"station_id":654,"station_name":"Ashmole Estate, Oval","ntrips":2},{"longitude":-0.219346,"latitude":51.4829,"station_id":655,"station_name":"Crabtree Lane, Fulham","ntrips":0},{"longitude":-0.199136,"latitude":51.4684,"station_id":656,"station_name":"Broomhouse Lane, Parsons Green","ntrips":0},{"longitude":-0.221792,"latitude":51.4997,"station_id":657,"station_name":"Blythe Road West, Shepherd's Bush","ntrips":2},{"longitude":-0.164786,"latitude":51.4773,"station_id":658,"station_name":"Ethelburga Estate, Battersea Park","ntrips":2},{"longitude":-0.1030789,"latitude":51.511934,"station_id":659,"station_name":"Blackfriars Station, St. Paul's","ntrips":1},{"longitude":-0.20603,"latitude":51.4909,"station_id":660,"station_name":"West Kensington Station, West Kensington","ntrips":0},{"longitude":-0.202609,"latitude":51.5163,"station_id":661,"station_name":"All Saints Church, Portobello","ntrips":0},{"longitude":-0.16792,"latitude":51.485,"station_id":662,"station_name":"Phene Street, Chelsea","ntrips":2},{"longitude":-0.211594,"latitude":51.5132,"station_id":663,"station_name":"Clarendon Road, Avondale","ntrips":1},{"longitude":-0.155443,"latitude":51.4744,"station_id":664,"station_name":"Austin Road, Battersea Park","ntrips":1},{"longitude":-0.191723,"latitude":51.4611,"station_id":665,"station_name":"Smugglers Way, Wandsworth","ntrips":2},{"longitude":-0.208158,"latitude":51.4961,"station_id":666,"station_name":"Olympia Way, Olympia","ntrips":0},{"longitude":-0.222293,"latitude":51.5016,"station_id":667,"station_name":"Shepherd's Bush Road North, Shepherd's Bush","ntrips":3},{"longitude":-0.23677,"latitude":51.4942,"station_id":668,"station_name":"Ravenscourt Park Station, Hammersmith","ntrips":6},{"longitude":-0.123258,"latitude":51.4761,"station_id":669,"station_name":"Teversham Lane, Stockwell","ntrips":0},{"longitude":-0.152249,"latitude":51.4672,"station_id":670,"station_name":"Ashley Crescent, Battersea","ntrips":3},{"longitude":-0.201968,"latitude":51.4751,"station_id":671,"station_name":"Parsons Green Station, Parsons Green","ntrips":2},{"longitude":-0.173657,"latitude":51.4647,"station_id":672,"station_name":"Grant Road Central, Clapham Junction","ntrips":0},{"longitude":-0.180389,"latitude":51.4652,"station_id":673,"station_name":"Hibbert Street, Battersea","ntrips":1},{"longitude":-0.116191,"latitude":51.5355,"station_id":674,"station_name":"Carnegie Street, King's Cross","ntrips":1},{"longitude":-0.182126,"latitude":51.4635,"station_id":675,"station_name":"Usk Road, Clapham Junction","ntrips":0},{"longitude":-0.126874,"latitude":51.4779,"station_id":676,"station_name":"Hartington Road, Stockwell","ntrips":1},{"longitude":-0.146545,"latitude":51.4687,"station_id":677,"station_name":"Heath Road, Battersea","ntrips":1},{"longitude":-0.211469,"latitude":51.4623,"station_id":678,"station_name":"Esmond Street, Putney","ntrips":1},{"longitude":-0.170211,"latitude":51.4745,"station_id":679,"station_name":"Orbel Street, Battersea","ntrips":1},{"longitude":-0.170329,"latitude":51.4777,"station_id":680,"station_name":"Westbridge Road, Battersea","ntrips":5},{"longitude":-0.21475,"latitude":51.473,"station_id":681,"station_name":"Bishop's Avenue, Fulham","ntrips":0},{"longitude":-0.226606,"latitude":51.4881,"station_id":682,"station_name":"Crisp Road, Hammersmith","ntrips":0},{"longitude":-0.163751,"latitude":51.4651,"station_id":683,"station_name":"Dorothy Road, Clapham Junction","ntrips":0},{"longitude":-0.195197,"latitude":51.4548,"station_id":684,"station_name":"Neville Gill Close, Wandsworth","ntrips":2},{"longitude":-0.198735,"latitude":51.4607,"station_id":685,"station_name":"Osiers Road, Wandsworth","ntrips":2},{"longitude":-0.222456,"latitude":51.4881,"station_id":686,"station_name":"Beryl Road, Hammersmith","ntrips":0},{"longitude":-0.211456,"latitude":51.4976,"station_id":687,"station_name":"Maclise Road, Olympia","ntrips":1},{"longitude":-0.200668,"latitude":51.461,"station_id":688,"station_name":"Northfields, Wandsworth","ntrips":0},{"longitude":-0.180885,"latitude":51.4592,"station_id":689,"station_name":"Spanish Road, Clapham Junction","ntrips":0},{"longitude":-0.15213,"latitude":51.4705,"station_id":690,"station_name":"Stanley Grove, Battersea","ntrips":0},{"longitude":-0.195777,"latitude":51.4795,"station_id":691,"station_name":"Erin Close, Walham Green","ntrips":1},{"longitude":-0.0289416,"latitude":51.5421,"station_id":692,"station_name":"Cadogan Close, Victoria Park","ntrips":2},{"longitude":-0.215619,"latitude":51.4648,"station_id":693,"station_name":"Felsham Road, Putney","ntrips":0},{"longitude":-0.216526,"latitude":51.4607,"station_id":694,"station_name":"Putney Rail Station, Putney","ntrips":0},{"longitude":-0.102758,"latitude":51.5364,"station_id":695,"station_name":"Islington Green, Angel","ntrips":3},{"longitude":-0.217996,"latitude":51.4873,"station_id":696,"station_name":"Charing Cross Hospital, Hammersmith","ntrips":3},{"longitude":-0.112721,"latitude":51.5364,"station_id":697,"station_name":"Charlotte Terrace, Angel","ntrips":0},{"longitude":-0.0703294,"latitude":51.5391,"station_id":698,"station_name":"Shoreditch Court, Haggerston","ntrips":0},{"longitude":-0.0702303,"latitude":51.5367,"station_id":699,"station_name":"Belford House, Haggerston","ntrips":3},{"longitude":-0.174347,"latitude":51.477,"station_id":700,"station_name":"Battersea Church Road, Battersea","ntrips":1},{"longitude":-0.176267,"latitude":51.4729,"station_id":701,"station_name":"Vicarage Crescent, Battersea","ntrips":4},{"longitude":-0.0655503,"latitude":51.5287,"station_id":702,"station_name":"Durant Street, Bethnal Green","ntrips":2},{"longitude":-0.105344,"latitude":51.5151,"station_id":703,"station_name":"St. Bride Street, Holborn","ntrips":1},{"longitude":-0.202802,"latitude":51.4568,"station_id":704,"station_name":"Mexfield Road, East Putney","ntrips":0},{"longitude":-0.212146,"latitude":51.4597,"station_id":705,"station_name":"Upper Richmond Road, Putney","ntrips":3},{"longitude":-0.0836329,"latitude":51.5022,"station_id":706,"station_name":"Snowsfields, London Bridge","ntrips":3},{"longitude":-0.215087,"latitude":51.4902,"station_id":707,"station_name":"Barons Court Station, West Kensington","ntrips":1},{"longitude":-0.216146,"latitude":51.4616,"station_id":708,"station_name":"Disraeli Road, Putney","ntrips":0},{"longitude":-0.215551,"latitude":51.4632,"station_id":709,"station_name":"Montserrat Road, Putney","ntrips":0},{"longitude":-0.163348,"latitude":51.4744,"station_id":710,"station_name":"Albert Bridge Road, Battersea Park","ntrips":1},{"longitude":-0.216306,"latitude":51.4834,"station_id":711,"station_name":"Everington Street, Fulham","ntrips":2},{"longitude":-0.0349037,"latitude":51.5185,"station_id":712,"station_name":"Mile End Stadium, Mile End","ntrips":1},{"longitude":-0.143261,"latitude":51.541,"station_id":713,"station_name":"Hawley Crescent, Camden Town","ntrips":0},{"longitude":-0.137235,"latitude":51.4731,"station_id":714,"station_name":"Stewart's Road, Wandsworth Road","ntrips":1},{"longitude":-0.0490672,"latitude":51.5156,"station_id":715,"station_name":"Aylward Street, Stepney","ntrips":0},{"longitude":-0.023565,"latitude":51.5154,"station_id":716,"station_name":"Stainsby Road, Poplar","ntrips":0},{"longitude":-0.0758857,"latitude":51.5366,"station_id":717,"station_name":"Dunston Road, Haggerston","ntrips":5},{"longitude":-0.0602918,"latitude":51.5357,"station_id":718,"station_name":"Ada Street, Hackney Central","ntrips":2},{"longitude":-0.0541623,"latitude":51.5364,"station_id":719,"station_name":"Victoria Park Road, Hackney Central","ntrips":0},{"longitude":-0.205279,"latitude":51.4872,"station_id":720,"station_name":"Star Road, West Kensington","ntrips":2},{"longitude":-0.0262627,"latitude":51.536,"station_id":721,"station_name":"Wendon Street, Old Ford","ntrips":0},{"longitude":-0.0586315,"latitude":51.5246,"station_id":722,"station_name":"Finnis Street, Bethnal Green","ntrips":2},{"longitude":-0.190346,"latitude":51.4682,"station_id":723,"station_name":"Stephendale Road, Sands End","ntrips":1},{"longitude":-0.184806,"latitude":51.458,"station_id":724,"station_name":"Alma Road, Wandsworth","ntrips":1},{"longitude":-0.096519,"latitude":51.49132,"station_id":725,"station_name":"Walworth Square, Walworth","ntrips":0},{"longitude":-0.150908,"latitude":51.4751,"station_id":726,"station_name":"Alfreda Street, Battersea Park","ntrips":0},{"longitude":-0.205876,"latitude":51.4757,"station_id":727,"station_name":"Chesilton Road, Fulham","ntrips":3},{"longitude":-0.206241,"latitude":51.462,"station_id":728,"station_name":"Putney Bridge Road, East Putney","ntrips":1},{"longitude":-0.208485,"latitude":51.4789,"station_id":729,"station_name":"St. Peter's Terrace, Fulham","ntrips":3},{"longitude":-0.229117,"latitude":51.4921,"station_id":730,"station_name":"Bridge Avenue, Hammersmith","ntrips":0},{"longitude":-0.18921,"latitude":51.4773,"station_id":731,"station_name":"Michael Road, Walham Green","ntrips":4},{"longitude":-0.087263,"latitude":51.5063,"station_id":732,"station_name":"Duke Street Hill, London Bridge","ntrips":4},{"longitude":-0.150817,"latitude":51.5054,"station_id":733,"station_name":"Park Lane, Mayfair","ntrips":0},{"longitude":-0.175407,"latitude":51.4623,"station_id":734,"station_name":"Plough Terrace, Clapham Junction","ntrips":0},{"longitude":-0.173029,"latitude":51.4649,"station_id":735,"station_name":"Grant Road East, Clapham Junction","ntrips":1},{"longitude":-0.216104,"latitude":51.5066,"station_id":736,"station_name":"Queensdale Road, Shepherd's Bush","ntrips":0},{"longitude":-0.194117,"latitude":51.4799,"station_id":737,"station_name":"Fulham Broadway, Walham Green","ntrips":2},{"longitude":-0.187279,"latitude":51.4751,"station_id":738,"station_name":"Imperial Road, Sands End","ntrips":2},{"longitude":-0.185274,"latitude":51.4818,"station_id":739,"station_name":"Hortensia Road, West Brompton","ntrips":0},{"longitude":-0.214595,"latitude":51.5109,"station_id":740,"station_name":"Sirdar Road, Avondale","ntrips":0},{"longitude":-0.219487,"latitude":51.513,"station_id":741,"station_name":"Freston Road, Avondale","ntrips":0},{"longitude":-0.208565,"latitude":51.5151,"station_id":742,"station_name":"Blenheim Crescent, Ladbroke Grove","ntrips":4},{"longitude":-0.212608,"latitude":51.4608,"station_id":743,"station_name":"Oxford Road, Putney","ntrips":0},{"longitude":-0.172293,"latitude":51.4675,"station_id":744,"station_name":"Ingrave Street, Clapham Junction","ntrips":1},{"longitude":-0.182435,"latitude":51.4782,"station_id":745,"station_name":"Upcerne Road, West Chelsea","ntrips":0},{"longitude":-0.179039,"latitude":51.4796,"station_id":746,"station_name":"Lots Road, West Chelsea","ntrips":1},{"longitude":-0.161765,"latitude":51.488,"station_id":747,"station_name":"Ormonde Gate, Chelsea","ntrips":1},{"longitude":-0.0792018,"latitude":51.5373,"station_id":748,"station_name":"Hertford Road, De Beauvoir Town","ntrips":1},{"longitude":-0.0742847,"latitude":51.5393,"station_id":749,"station_name":"Haggerston Road, Haggerston","ntrips":0},{"longitude":-0.15785,"latitude":51.4711,"station_id":750,"station_name":"Culvert Road, Battersea","ntrips":0},{"longitude":-0.120909,"latitude":51.5161,"station_id":751,"station_name":"Newton Street, Covent Garden","ntrips":0},{"longitude":-0.206002,"latitude":51.4582,"station_id":752,"station_name":"Manfred Road, East Putney","ntrips":0},{"longitude":-0.234094,"latitude":51.4926,"station_id":753,"station_name":"Hammersmith Town Hall, Hammersmith","ntrips":0},{"longitude":-0.214763,"latitude":51.5129,"station_id":754,"station_name":"Grenfell Road, Avondale","ntrips":1},{"longitude":-0.174972,"latitude":51.4851,"station_id":755,"station_name":"The Vale, Chelsea","ntrips":3},{"longitude":-0.15917,"latitude":51.4752,"station_id":756,"station_name":"Prince of Wales Drive, Battersea Park","ntrips":1},{"longitude":-0.187405,"latitude":51.488,"station_id":757,"station_name":"Harcourt Terrace, West Brompton","ntrips":2},{"longitude":-0.201005,"latitude":51.5179,"station_id":758,"station_name":"Westbourne Park Road, Portobello","ntrips":0},{"longitude":-0.165669,"latitude":51.5246,"station_id":759,"station_name":"Broadley Terrace, Marylebone","ntrips":1},{"longitude":-0.163795,"latitude":51.5253,"station_id":760,"station_name":"Rossmore Road, Marylebone","ntrips":0},{"longitude":-0.211861,"latitude":51.4832,"station_id":761,"station_name":"Humbolt Road, Fulham","ntrips":3},{"longitude":-0.129699,"latitude":51.5007,"station_id":762,"station_name":"Storey's Gate, Westminster","ntrips":0},{"longitude":-0.0325665,"latitude":51.5206,"station_id":763,"station_name":"Mile End Park Leisure Centre, Mile End","ntrips":0},{"longitude":-0.168292,"latitude":51.4624,"station_id":764,"station_name":"St. John's Road, Clapham Junction","ntrips":1},{"longitude":-0.206827,"latitude":51.4676,"station_id":765,"station_name":"Ranelagh Gardens, Fulham","ntrips":0},{"longitude":-0.192166,"latitude":51.4575,"station_id":766,"station_name":"Ram Street, Wandsworth","ntrips":0},{"longitude":-0.200806,"latitude":51.4571,"station_id":767,"station_name":"Santos Road, Wandsworth","ntrips":0},{"longitude":-0.159322,"latitude":51.4613,"station_id":768,"station_name":"Clapham Common North Side, Clapham Common","ntrips":1},{"longitude":-0.191803,"latitude":51.4736,"station_id":769,"station_name":"Sandilands Road, Walham Green","ntrips":0},{"longitude":-0.209121,"latitude":51.491,"station_id":770,"station_name":"Gwendwr Road, West Kensington","ntrips":2},{"longitude":-0.216016,"latitude":51.5092,"station_id":771,"station_name":"Rifle Place, Avondale","ntrips":1},{"longitude":-0.122832,"latitude":51.4725,"station_id":772,"station_name":"Binfield Road, Stockwell","ntrips":2},{"longitude":-0.107349,"latitude":51.5119,"station_id":773,"station_name":"Tallis Street, Temple","ntrips":1},{"longitude":-0.20464,"latitude":51.4701,"station_id":774,"station_name":"Hurlingham Park, Parsons Green","ntrips":1},{"longitude":-0.223868,"latitude":51.4967,"station_id":775,"station_name":"Little Brook Green, Brook Green","ntrips":0},{"longitude":-0.167029,"latitude":51.4603,"station_id":776,"station_name":"Abyssinia Close, Clapham Junction","ntrips":1},{"longitude":-0.165298,"latitude":51.4619,"station_id":777,"station_name":"Limburg Road, Clapham Junction","ntrips":0},{"longitude":-0.04109,"latitude":51.5338,"station_id":778,"station_name":"Pop Up Dock 1","ntrips":0},{"longitude":-0.077179,"latitude":51.5144,"station_id":779,"station_name":"Houndsditch, Aldgate","ntrips":0},{"longitude":-0.183165,"latitude":51.4747,"station_id":780,"station_name":"Imperial Wharf Station, Sands End","ntrips":0},{"longitude":-0.172065,"latitude":51.4967,"station_id":781,"station_name":"Victoria & Albert Museum, South Kensington","ntrips":0},{"longitude":-0.197609,"latitude":51.4839,"station_id":782,"station_name":"Halford Road, West Kensington","ntrips":0},{"longitude":-0.0216304,"latitude":51.5403,"station_id":783,"station_name":"Monier Road, Hackney Wick","ntrips":2},{"longitude":-0.00993526,"latitude":51.5463,"station_id":784,"station_name":"East Village, Queen Elizabeth Olympic Park","ntrips":0},{"longitude":-0.0105106,"latitude":51.5409,"station_id":785,"station_name":"Aquatic Centre, Queen Elizabeth Olympic Park","ntrips":2},{"longitude":-0.0157176,"latitude":51.5494,"station_id":786,"station_name":"Lee Valley VeloPark, Queen Elizabeth Olympic Park","ntrips":1},{"longitude":-0.0146913,"latitude":51.5468,"station_id":787,"station_name":"Timber Lodge, Queen Elizabeth Olympic Park","ntrips":0},{"longitude":-0.0195248,"latitude":51.5448,"station_id":788,"station_name":"Copper Box Arena, Queen Elizabeth Olympic Park","ntrips":0},{"longitude":-0.0118895,"latitude":51.5387,"station_id":789,"station_name":"Podium, Queen Elizabeth Olympic Park","ntrips":0},{"longitude":-0.00481,"latitude":51.5418,"station_id":790,"station_name":"Stratford Station, Stratford","ntrips":0},{"longitude":-0.104541,"latitude":51.5055,"station_id":792,"station_name":"Blackfriars Road, Southwark","ntrips":0},{"longitude":-0.119559,"latitude":51.5283,"station_id":793,"station_name":"Cromer Street, Bloomsbury","ntrips":0},{"longitude":-0.12458,"latitude":51.4746,"station_id":794,"station_name":"Lansdowne Way Bus Garage, Stockwell","ntrips":1},{"longitude":-0.134849,"latitude":51.5276,"station_id":795,"station_name":"Euston Square Gardens, Euston","ntrips":0},{"longitude":-0.12641,"latitude":51.524,"station_id":796,"station_name":"Coram Street, Bloomsbury","ntrips":0},{"longitude":-0.128281945,"latitude":51.52930361,"station_id":797,"station_name":"Ossulston Street, Somers Town","ntrips":0},{"longitude":-0.122299,"latitude":51.5302,"station_id":798,"station_name":"Birkenhead Street, King's Cross","ntrips":1},{"longitude":-0.137599,"latitude":51.4977,"station_id":799,"station_name":"Kings Gate House, Westminster","ntrips":0},{"longitude":-0.149035,"latitude":51.4811,"station_id":800,"station_name":"Sopwith Way, Battersea Park","ntrips":0},{"longitude":-0.0980318,"latitude":51.5052,"station_id":801,"station_name":"Lavington Street, Bankside","ntrips":2},{"longitude":-0.118256789,"latitude":51.47659006,"station_id":802,"station_name":"Albert Square, Stockwell","ntrips":0},{"longitude":-0.098341088,"latitude":51.50540994,"station_id":803,"station_name":"Southwark Street, Bankside","ntrips":1},{"longitude":-0.125079,"latitude":51.5347,"station_id":804,"station_name":"Good's Way, King's Cross","ntrips":0},{"longitude":-0.206338208,"latitude":51.52007391,"station_id":805,"station_name":"Bevington Road, North Kensington","ntrips":1},{"longitude":-0.12481,"latitude":51.53724,"station_id":806,"station_name":"Handyside Street, King's Cross","ntrips":1},{"longitude":-0.208617281,"latitude":51.52113388,"station_id":807,"station_name":"Bevington Road West, North Kensington","ntrips":4},{"longitude":-0.122556,"latitude":51.4735,"station_id":808,"station_name":"Stockwell Roundabout, Stockwell","ntrips":0},{"longitude":-0.114998086,"latitude":51.51582693,"station_id":809,"station_name":"Lincoln's Inn Fields, Holborn","ntrips":0},{"longitude":-0.098884952,"latitude":51.50672097,"station_id":810,"station_name":"Tate Modern, Bankside","ntrips":2},{"longitude":-0.027775894,"latitude":51.50569679,"station_id":811,"station_name":"Westferry Circus, Canary Wharf","ntrips":0},{"longitude":-0.022626668,"latitude":51.54872406,"station_id":812,"station_name":"Here East North, Queen Elizabeth Olympic Park","ntrips":0},{"longitude":-0.122759626,"latitude":51.48780745,"station_id":813,"station_name":"New Spring Gardens Walk, Vauxhall","ntrips":2},{"longitude":-0.123670736,"latitude":51.47143307,"station_id":814,"station_name":"Clapham Road, Lingham Street, Stockwell","ntrips":0},{"longitude":-0.115171479,"latitude":51.50045247,"station_id":815,"station_name":"Lambeth Palace Road, Waterloo","ntrips":6},{"longitude":-0.022626668,"latitude":51.54872406,"station_id":816,"station_name":"Here East South, Queen Elizabeth Olympic Park","ntrips":0},{"longitude":-0.13821289,"latitude":51.48133503,"station_id":817,"station_name":"Riverlight South, Nine Elms","ntrips":0},{"longitude":-0.12382352,"latitude":51.501513,"station_id":818,"station_name":"Westminster Pier, Westminster","ntrips":3},{"longitude":-0.114686,"latitude":51.5061,"station_id":819,"station_name":"Belvedere Road 2, South Bank","ntrips":0},{"longitude":-0.092486949,"latitude":51.49266501,"station_id":820,"station_name":"Victory Place, Walworth","ntrips":1},{"longitude":-0.147702349,"latitude":51.48351589,"station_id":821,"station_name":"Battersea Power Station, Battersea Park","ntrips":2},{"longitude":-0.142952,"latitude":51.496858,"station_id":826,"station_name":"Allington street, Westminster","ntrips":1},{"longitude":-0.111481,"latitude":51.479593,"station_id":827,"station_name":"Cranmer Road, Stockwell","ntrips":1},{"longitude":-0.112581,"latitude":51.473874,"station_id":828,"station_name":"Normandy Road, Stockwell","ntrips":4},{"longitude":-0.112687,"latitude":51.469217,"station_id":829,"station_name":"Wynne Road, Stockwell","ntrips":1},{"longitude":-0.119023,"latitude":51.469202,"station_id":830,"station_name":"Sidney Road, Stockwell","ntrips":2},{"longitude":-0.113184,"latitude":51.466231,"station_id":831,"station_name":"St John's Crescent, Brixton","ntrips":1},{"longitude":-0.115795,"latitude":51.464016,"station_id":832,"station_name":"Ferndale Road, Brixton. ","ntrips":1},{"longitude":-0.115375,"latitude":51.460232,"station_id":833,"station_name":"Saltoun Road, Brixton","ntrips":0},{"longitude":-0.147857,"latitude":51.477966,"station_id":834,"station_name":"Gas Holders, Battersea Park","ntrips":1},{"longitude":-0.125442,"latitude":51.541596,"station_id":836,"station_name":"York Way, Kings Cross","ntrips":1},{"longitude":-0.1049478,"latitude":51.516785,"station_id":835,"station_name":"Farringdon Street, Holborn","ntrips":4},{"longitude":-0.0914017,"latitude":51.518093,"station_id":838,"station_name":"Fore Street Avenue, Guildhall","ntrips":0},{"longitude":-0.1068403,"latitude":51.507974,"station_id":839,"station_name":"Sea Containers, South Bank","ntrips":0},{"longitude":-0.069023,"latitude":51.498581,"station_id":840,"station_name":"George Row, Bermondsey","ntrips":2},{"longitude":-0.074713,"latitude":51.500841,"station_id":841,"station_name":"Tower Wharf, Bermondsey","ntrips":1},{"longitude":-0.108338,"latitude":51.510987,"station_id":842,"station_name":"Temple Gardens, Temple","ntrips":2},{"longitude":-0.049164,"latitude":51.498436,"station_id":844,"station_name":"Canada Water Station, Rotherhithe","ntrips":0}]