[{"longitude":-0.109971,"latitude":51.5292,"station_id":1,"station_name":"River Street, Clerkenwell","ntrips":0,"trips":[]},{"longitude":-0.197574,"latitude":51.4996,"station_id":2,"station_name":"Phillimore Gardens, Kensington","ntrips":4,"trips":[{"station":"Cadogan Place, Knightsbridge","duration":1140,"type":"outbound","distance":3759},{"station":"Belgrave Square, Belgravia","duration":900,"type":"inbound","distance":3765},{"station":"Curzon Street, Mayfair","duration":1140,"type":"outbound","distance":4612},{"station":"Seymour Place, Marylebone","duration":900,"type":"inbound","distance":4529}]},{"longitude":-0.0846057,"latitude":51.5213,"station_id":3,"station_name":"Christopher Street, Liverpool Street","ntrips":3,"trips":[{"station":"Pritchard's Road, Bethnal Green","duration":600,"type":"inbound","distance":2617},{"station":"Dock Street, Wapping","duration":540,"type":"inbound","distance":3662},{"station":"Crosswall, Tower","duration":480,"type":"inbound","distance":3295}]},{"longitude":-0.120974,"latitude":51.5301,"station_id":4,"station_name":"St. Chad's Street, King's Cross","ntrips":1,"trips":[{"station":"Brunswick Square, Bloomsbury","duration":300,"type":"outbound","distance":1747}]},{"longitude":-0.156876,"latitude":51.4931,"station_id":5,"station_name":"Sedding Street, Sloane Square","ntrips":5,"trips":[{"station":"The Vale, Chelsea","duration":360,"type":"outbound","distance":1861},{"station":"The Vale, Chelsea","duration":300,"type":"inbound","distance":1601},{"station":"The Metropolitan, Portobello","duration":1260,"type":"inbound","distance":6578},{"station":"Borough High Street, The Borough","duration":1560,"type":"outbound","distance":6347},{"station":"Denyer Street, Knightsbridge","duration":240,"type":"inbound","distance":872}]},{"longitude":-0.144229,"latitude":51.5181,"station_id":6,"station_name":"Broadcasting House, Marylebone","ntrips":1,"trips":[{"station":"Edgware Road Station, Marylebone","duration":780,"type":"outbound","distance":3518}]},{"longitude":-0.168074,"latitude":51.5343,"station_id":7,"station_name":"Charlbert Street, St. John's Wood","ntrips":0,"trips":[]},{"longitude":-0.183486,"latitude":51.529857,"station_id":8,"station_name":"Maida Vale, Maida Vale","ntrips":5,"trips":[{"station":"Bramham Gardens, Earl's Court","duration":960,"type":"outbound","distance":9228},{"station":"Everington Street, Fulham","duration":1560,"type":"outbound","distance":9741},{"station":"Beaumont Street, Marylebone","duration":660,"type":"outbound","distance":3054},{"station":"Bell Street , Marylebone","duration":480,"type":"inbound","distance":1875},{"station":"Bolsover Street, Fitzrovia","duration":900,"type":"inbound","distance":3421}]},{"longitude":-0.0964408,"latitude":51.5074,"station_id":9,"station_name":"New Globe Walk, Bankside","ntrips":1,"trips":[{"station":"Concert Hall Approach 2, South Bank","duration":720,"type":"inbound","distance":1923}]},{"longitude":-0.0927542,"latitude":51.506,"station_id":10,"station_name":"Park Street, Bankside","ntrips":1,"trips":[{"station":"Islington Green, Angel","duration":840,"type":"inbound","distance":4960}]},{"longitude":-0.122502,"latitude":51.524,"station_id":11,"station_name":"Brunswick Square, Bloomsbury","ntrips":2,"trips":[{"station":"St. Chad's Street, King's Cross","duration":300,"type":"inbound","distance":1747},{"station":"Northington Street , Holborn","duration":240,"type":"inbound","distance":1202}]},{"longitude":-0.130432,"latitude":51.5217,"station_id":12,"station_name":"Malet Street, Bloomsbury","ntrips":1,"trips":[{"station":"Tavistock Place, Bloomsbury","duration":240,"type":"outbound","distance":855}]},{"longitude":-0.13604,"latitude":51.5199,"station_id":13,"station_name":"Scala Street, Fitzrovia","ntrips":2,"trips":[{"station":"West Smithfield Rotunda, Farringdon","duration":780,"type":"outbound","distance":3705},{"station":"George Place Mews, Marylebone","duration":540,"type":"inbound","distance":1893}]},{"longitude":-0.123617,"latitude":51.5299,"station_id":14,"station_name":"Belgrove Street, King's Cross","ntrips":5,"trips":[{"station":"Foley Street, Fitzrovia","duration":720,"type":"outbound","distance":2425},{"station":"Guilford Street , Bloomsbury","duration":300,"type":"outbound","distance":1885},{"station":"Red Lion Street, Holborn","duration":420,"type":"outbound","distance":2347},{"station":"Tysoe Street, Clerkenwell","duration":420,"type":"inbound","distance":1629},{"station":"Albert Embankment, Vauxhall","duration":1200,"type":"outbound","distance":5728}]},{"longitude":-0.127854,"latitude":51.5177,"station_id":15,"station_name":"Great Russell Street, Bloomsbury","ntrips":2,"trips":[{"station":"Finsbury Square , Moorgate","duration":720,"type":"inbound","distance":4279},{"station":"Great Tower Street, Monument","duration":720,"type":"outbound","distance":5169}]},{"longitude":-0.125979,"latitude":51.5264,"station_id":16,"station_name":"Cartwright Gardens, Bloomsbury","ntrips":0,"trips":[]},{"longitude":-0.109006,"latitude":51.5217,"station_id":17,"station_name":"Hatton Wall, Holborn","ntrips":0,"trips":[]},{"longitude":-0.12222,"latitude":51.5148,"station_id":18,"station_name":"Drury Lane, Covent Garden","ntrips":1,"trips":[{"station":"Duke Street Hill, London Bridge","duration":780,"type":"outbound","distance":4204}]},{"longitude":-0.131161,"latitude":51.5251,"station_id":19,"station_name":"Taviton Street, Bloomsbury","ntrips":0,"trips":[]},{"longitude":-0.135273,"latitude":51.5277,"station_id":20,"station_name":"Drummond Street, Euston","ntrips":0,"trips":[]},{"longitude":-0.138846,"latitude":51.5301,"station_id":21,"station_name":"Hampstead Road (Cartmel), Euston","ntrips":0,"trips":[]},{"longitude":-0.114079,"latitude":51.5223,"station_id":22,"station_name":"Northington Street, Holborn","ntrips":3,"trips":[{"station":"Christian Street, Whitechapel","duration":1200,"type":"inbound","distance":4577},{"station":"Brunswick Square, Bloomsbury","duration":240,"type":"outbound","distance":1202},{"station":"Barbican Centre, Barbican","duration":660,"type":"outbound","distance":4298}]},{"longitude":-0.119123,"latitude":51.5194,"station_id":23,"station_name":"Red Lion Square, Holborn","ntrips":0,"trips":[]},{"longitude":-0.124678,"latitude":51.5191,"station_id":24,"station_name":"British Museum, Bloomsbury","ntrips":1,"trips":[{"station":"Eversholt Street , Camden Town","duration":540,"type":"inbound","distance":2102}]},{"longitude":-0.13225,"latitude":51.5288,"station_id":25,"station_name":"Doric Way, Somers Town","ntrips":1,"trips":[{"station":"Wren Street, Holborn","duration":420,"type":"outbound","distance":1755}]},{"longitude":-0.118295,"latitude":51.5273,"station_id":26,"station_name":"Ampton Street, Clerkenwell","ntrips":0,"trips":[]},{"longitude":-0.107928,"latitude":51.5138,"station_id":27,"station_name":"Bouverie Street, Temple","ntrips":1,"trips":[{"station":"Wormwood Street, Liverpool Street","duration":540,"type":"inbound","distance":2707}]},{"longitude":-0.143614,"latitude":51.5235,"station_id":28,"station_name":"Bolsover Street, Fitzrovia","ntrips":3,"trips":[{"station":"Hinde Street, Marylebone","duration":300,"type":"outbound","distance":1313},{"station":"Maida Vale, Maida Vale","duration":900,"type":"outbound","distance":3421},{"station":"Clifton Road, Maida Vale","duration":720,"type":"inbound","distance":3616}]},{"longitude":-0.193487,"latitude":51.5137,"station_id":29,"station_name":"Hereford Road, Bayswater","ntrips":2,"trips":[{"station":"Queen Street 2, Bank","duration":2220,"type":"outbound","distance":8614},{"station":"Queen's Circus, Battersea Park","duration":1440,"type":"inbound","distance":7686}]},{"longitude":-0.0934216,"latitude":51.5292,"station_id":30,"station_name":"Windsor Terrace, Hoxton","ntrips":3,"trips":[{"station":"Queensbridge Road, Haggerston","duration":540,"type":"outbound","distance":2386},{"station":"Duke Street Hill, London Bridge","duration":840,"type":"outbound","distance":5347},{"station":"Farringdon Street, Holborn","duration":480,"type":"outbound","distance":2784}]},{"longitude":-0.0833533,"latitude":51.5295,"station_id":31,"station_name":"Fanshaw Street, Hoxton","ntrips":0,"trips":[]},{"longitude":-0.0844393,"latitude":51.5247,"station_id":32,"station_name":"Leonard Circus, Shoreditch","ntrips":3,"trips":[{"station":"Pindar Street, Liverpool Street","duration":180,"type":"inbound","distance":1226},{"station":"Mostyn Grove, Bow","duration":2040,"type":"inbound","distance":4826},{"station":"Dunston Road , Haggerston","duration":360,"type":"inbound","distance":2179}]},{"longitude":-0.0678275,"latitude":51.5168,"station_id":33,"station_name":"Central House, Aldgate","ntrips":2,"trips":[{"station":"Sardinia Street, Holborn","duration":900,"type":"inbound","distance":4602},{"station":"Watney Market, Stepney","duration":360,"type":"inbound","distance":1041}]},{"longitude":-0.129387,"latitude":51.5341,"station_id":34,"station_name":"Pancras Road, King's Cross","ntrips":0,"trips":[]},{"longitude":-0.184981,"latitude":51.5017,"station_id":36,"station_name":"De Vere Gardens, Kensington","ntrips":2,"trips":[{"station":"Hyde Park Corner, Hyde Park","duration":1140,"type":"inbound","distance":2274},{"station":"Geraldine Street, Elephant & Castle","duration":1680,"type":"inbound","distance":6689}]},{"longitude":-0.192369,"latitude":51.4916,"station_id":37,"station_name":"Penywern Road, Earl's Court","ntrips":2,"trips":[{"station":"Sloane Avenue, Knightsbridge","duration":540,"type":"outbound","distance":3639},{"station":"Exhibition Road, Knightsbridge","duration":420,"type":"inbound","distance":2161}]},{"longitude":-0.197246,"latitude":51.4974,"station_id":38,"station_name":"Abingdon Villas, Kensington","ntrips":5,"trips":[{"station":"Wright's Lane, Kensington","duration":120,"type":"inbound","distance":595},{"station":"Shepherd's Bush Road North, Shepherd's Bush","duration":540,"type":"inbound","distance":2662},{"station":"Wright's Lane, Kensington","duration":180,"type":"outbound","distance":595},{"station":"Kensington Olympia Station, Olympia","duration":360,"type":"inbound","distance":1153},{"station":"Smugglers Way, Wandsworth","duration":1320,"type":"inbound","distance":5583}]},{"longitude":-0.0781309,"latitude":51.5264,"station_id":39,"station_name":"Shoreditch High Street, Shoreditch","ntrips":1,"trips":[{"station":"Brushfield Street, Liverpool Street","duration":360,"type":"inbound","distance":1235}]},{"longitude":-0.0755789,"latitude":51.5213,"station_id":40,"station_name":"Commercial Street, Shoreditch","ntrips":1,"trips":[{"station":"Belford House, Haggerston","duration":540,"type":"inbound","distance":2096}]},{"longitude":-0.0839112,"latitude":51.52,"station_id":41,"station_name":"Pindar Street, Liverpool Street","ntrips":4,"trips":[{"station":"Pritchard's Road, Bethnal Green","duration":600,"type":"inbound","distance":2570},{"station":"Leonard Circus , Shoreditch","duration":180,"type":"outbound","distance":1226},{"station":"Baldwin Street, St. Luke's","duration":300,"type":"outbound","distance":1069},{"station":"Clifton Street, Shoreditch","duration":120,"type":"outbound","distance":857}]},{"longitude":-0.0939038,"latitude":51.531,"station_id":42,"station_name":"Wenlock Road, Hoxton","ntrips":1,"trips":[{"station":"Moorfields, Moorgate","duration":420,"type":"outbound","distance":3335}]},{"longitude":-0.157184,"latitude":51.5203,"station_id":43,"station_name":"Crawford Street, Marylebone","ntrips":2,"trips":[{"station":"Columbia Road, Shoreditch","duration":1800,"type":"inbound","distance":7538},{"station":"Clifford Street, Mayfair","duration":300,"type":"outbound","distance":1917}]},{"longitude":-0.144165,"latitude":51.5107,"station_id":44,"station_name":"Bruton Street, Mayfair","ntrips":3,"trips":[{"station":"Battersea Power Station, Battersea Park","duration":1080,"type":"inbound","distance":4889},{"station":"Cleveland Gardens, Bayswater","duration":660,"type":"inbound","distance":3409},{"station":"Drayton Gardens, West Chelsea","duration":960,"type":"inbound","distance":4372}]},{"longitude":-0.162298,"latitude":51.5225,"station_id":45,"station_name":"Boston Place, Marylebone","ntrips":1,"trips":[{"station":"Montpelier Street, Knightsbridge","duration":900,"type":"outbound","distance":4355}]},{"longitude":-0.06691,"latitude":51.5071,"station_id":46,"station_name":"Nesham Street, Wapping","ntrips":1,"trips":[{"station":"Brushfield Street, Liverpool Street","duration":540,"type":"outbound","distance":3538}]},{"longitude":-0.183846,"latitude":51.5233,"station_id":47,"station_name":"Warwick Avenue Station, Maida Vale","ntrips":1,"trips":[{"station":"Clifton Road, Maida Vale","duration":120,"type":"outbound","distance":501}]},{"longitude":-0.0991414,"latitude":51.5125,"station_id":48,"station_name":"Godliman Street, St. Paul's","ntrips":1,"trips":[{"station":"Smith Square, Westminster","duration":1020,"type":"outbound","distance":4062}]},{"longitude":-0.145904,"latitude":51.5071,"station_id":49,"station_name":"Curzon Street, Mayfair","ntrips":1,"trips":[{"station":"Phillimore Gardens, Kensington","duration":1140,"type":"inbound","distance":4612}]},{"longitude":-0.0874594,"latitude":51.5287,"station_id":50,"station_name":"East Road, Hoxton","ntrips":0,"trips":[]},{"longitude":-0.104298,"latitude":51.5267,"station_id":51,"station_name":"Finsbury Library, Finsbury","ntrips":1,"trips":[{"station":"Stamford Street, South Bank","duration":720,"type":"outbound","distance":3245}]},{"longitude":-0.0949349,"latitude":51.523,"station_id":52,"station_name":"Roscoe Street, St. Luke's","ntrips":2,"trips":[{"station":"Cheapside, Bank","duration":480,"type":"outbound","distance":2436},{"station":"Great Tower Street, Monument","duration":600,"type":"outbound","distance":4559}]},{"longitude":-0.143495,"latitude":51.51,"station_id":53,"station_name":"Grafton Street, Mayfair","ntrips":0,"trips":[]},{"longitude":-0.0944751,"latitude":51.5217,"station_id":54,"station_name":"Golden Lane, Barbican","ntrips":1,"trips":[{"station":"Farringdon Street, Holborn","duration":240,"type":"outbound","distance":1593}]},{"longitude":-0.0866855,"latitude":51.5171,"station_id":55,"station_name":"Finsbury Circus, Liverpool Street","ntrips":5,"trips":[{"station":"Cheapside, Bank","duration":300,"type":"outbound","distance":2146},{"station":"Newgate Street , St. Paul's","duration":300,"type":"outbound","distance":1067},{"station":"Chadwell Street, Angel","duration":720,"type":"inbound","distance":2990},{"station":"High Holborn , Covent Garden","duration":840,"type":"outbound","distance":3616},{"station":"Pritchard's Road, Bethnal Green","duration":780,"type":"inbound","distance":3282}]},{"longitude":-0.154701,"latitude":51.5206,"station_id":56,"station_name":"Paddington Street, Marylebone","ntrips":2,"trips":[{"station":"Baldwin Street, St. Luke's","duration":1500,"type":"outbound","distance":5323},{"station":"Warren Street Station, Euston","duration":480,"type":"outbound","distance":2196}]},{"longitude":-0.120203,"latitude":51.5233,"station_id":57,"station_name":"Guilford Street, Bloomsbury","ntrips":9,"trips":[{"station":"Finnis Street, Bethnal Green","duration":1440,"type":"outbound","distance":5424},{"station":"Macclesfield Rd, St Lukes","duration":540,"type":"inbound","distance":2717},{"station":"St Martins Close, Camden Town","duration":600,"type":"inbound","distance":3397},{"station":"Bonner Gate, Victoria Park","duration":1500,"type":"inbound","distance":25899},{"station":"Belgrove Street , King's Cross","duration":300,"type":"inbound","distance":1885},{"station":"William IV Street, Strand","duration":660,"type":"inbound","distance":2824},{"station":"Walnut Tree Walk, Vauxhall","duration":1140,"type":"inbound","distance":4515},{"station":"Tanner Street, Bermondsey","duration":1140,"type":"inbound","distance":5163},{"station":"Snow Hill, Farringdon","duration":480,"type":"inbound","distance":1772}]},{"longitude":-0.0792481,"latitude":51.5245,"station_id":58,"station_name":"New Inn Yard, Shoreditch","ntrips":2,"trips":[{"station":"Crinan Street, King's Cross","duration":780,"type":"inbound","distance":4037},{"station":"Regent's Row , Haggerston ","duration":540,"type":"inbound","distance":3175}]},{"longitude":-0.114329,"latitude":51.5318,"station_id":59,"station_name":"Rodney Street, Angel","ntrips":0,"trips":[]},{"longitude":-0.172191,"latitude":51.5264,"station_id":60,"station_name":"Lisson Grove, St. John's Wood","ntrips":1,"trips":[{"station":"Grove End Road, St. John's Wood","duration":180,"type":"inbound","distance":608}]},{"longitude":-0.0894469,"latitude":51.4974,"station_id":61,"station_name":"Great Dover Street, The Borough","ntrips":3,"trips":[{"station":"Houghton Street, Strand","duration":1020,"type":"outbound","distance":3639},{"station":"Swan Street, The Borough","duration":120,"type":"outbound","distance":985},{"station":"Kingsway Southbound, Strand","duration":720,"type":"outbound","distance":4382}]},{"longitude":-0.106324,"latitude":51.4908,"station_id":62,"station_name":"Cotton Garden Estate, Kennington","ntrips":1,"trips":[{"station":"Kennington Lane Rail Bridge, Vauxhall","duration":300,"type":"inbound","distance":1303}]},{"longitude":-0.0897826,"latitude":51.5309,"station_id":63,"station_name":"Murray Grove, Hoxton","ntrips":1,"trips":[{"station":"Concert Hall Approach 2, South Bank","duration":1020,"type":"outbound","distance":5710}]},{"longitude":-0.124749,"latitude":51.5095,"station_id":64,"station_name":"William IV Street, Strand","ntrips":4,"trips":[{"station":"Guilford Street , Bloomsbury","duration":660,"type":"outbound","distance":2824},{"station":"Warwick Road, Olympia","duration":1380,"type":"inbound","distance":6609},{"station":"Waterloo Station 1, Waterloo","duration":480,"type":"inbound","distance":2789},{"station":"Regent's Row , Haggerston ","duration":1260,"type":"inbound","distance":7174}]},{"longitude":-0.135189,"latitude":51.5252,"station_id":65,"station_name":"Gower Place, Euston","ntrips":0,"trips":[]},{"longitude":-0.108657,"latitude":51.518,"station_id":66,"station_name":"Holborn Circus, Holborn","ntrips":2,"trips":[{"station":"Clerkenwell Green, Clerkenwell","duration":240,"type":"outbound","distance":1346},{"station":"Twig Folly Bridge, Mile End","duration":1200,"type":"outbound","distance":6280}]},{"longitude":-0.108028,"latitude":51.5188,"station_id":67,"station_name":"Hatton Garden, Holborn","ntrips":0,"trips":[]},{"longitude":-0.116688,"latitude":51.5206,"station_id":68,"station_name":"Theobald's Road, Holborn","ntrips":3,"trips":[{"station":"Tysoe Street, Clerkenwell","duration":240,"type":"inbound","distance":890},{"station":"Carey Street, Holborn","duration":240,"type":"outbound","distance":1333},{"station":"Dunston Road , Haggerston","duration":1260,"type":"inbound","distance":3988}]},{"longitude":-0.134408,"latitude":51.5262,"station_id":69,"station_name":"Euston Road, Euston","ntrips":1,"trips":[{"station":"Westminster Pier, Westminster","duration":780,"type":"outbound","distance":4180}]},{"longitude":-0.11707,"latitude":51.5314,"station_id":70,"station_name":"Calshot Street, King's Cross","ntrips":0,"trips":[]},{"longitude":-0.0988509,"latitude":51.5154,"station_id":71,"station_name":"Newgate Street, St. Paul's","ntrips":3,"trips":[{"station":"Caldwell Street, Stockwell","duration":1440,"type":"inbound","distance":6594},{"station":"Finsbury Circus, Liverpool Street","duration":300,"type":"inbound","distance":1067},{"station":"Sutton Street, Shadwell","duration":1140,"type":"inbound","distance":5380}]},{"longitude":-0.10834,"latitude":51.5235,"station_id":72,"station_name":"Farringdon Lane, Clerkenwell","ntrips":0,"trips":[]},{"longitude":-0.0884862,"latitude":51.5257,"station_id":73,"station_name":"Old Street Station, St. Luke's","ntrips":1,"trips":[{"station":"Berry Street, Clerkenwell","duration":300,"type":"outbound","distance":855}]},{"longitude":-0.12447,"latitude":51.4859,"station_id":74,"station_name":"Vauxhall Cross, Vauxhall","ntrips":3,"trips":[{"station":"Orbel Street, Battersea","duration":780,"type":"inbound","distance":3909},{"station":"Lower Marsh, Waterloo","duration":540,"type":"outbound","distance":2003},{"station":"Smugglers Way, Wandsworth","duration":1380,"type":"inbound","distance":5813}]},{"longitude":-0.105481,"latitude":51.5322,"station_id":75,"station_name":"Torrens Street, Angel","ntrips":0,"trips":[]},{"longitude":-0.144084,"latitude":51.5256,"station_id":76,"station_name":"Longford Street, The Regent's Park","ntrips":0,"trips":[]},{"longitude":-0.124122,"latitude":51.5234,"station_id":77,"station_name":"Russell Square Station, Bloomsbury","ntrips":1,"trips":[{"station":"Dorset Square, Marylebone","duration":840,"type":"inbound","distance":3109}]},{"longitude":-0.0994895,"latitude":51.5249,"station_id":78,"station_name":"Sadlers Sports Centre, Finsbury","ntrips":1,"trips":[{"station":"Clerkenwell Green, Clerkenwell","duration":120,"type":"outbound","distance":847}]},{"longitude":-0.0971465,"latitude":51.4912,"station_id":79,"station_name":"Arundel Street, Temple","ntrips":1,"trips":[{"station":"Dickens Square, Borough","duration":660,"type":"inbound","distance":1428}]},{"longitude":-0.102091,"latitude":51.5007,"station_id":80,"station_name":"Webber Street, Southwark","ntrips":0,"trips":[]},{"longitude":-0.141327,"latitude":51.5203,"station_id":81,"station_name":"Great Titchfield Street, Fitzrovia","ntrips":0,"trips":[]},{"longitude":-0.111257,"latitude":51.5143,"station_id":82,"station_name":"Chancery Lane, Holborn","ntrips":0,"trips":[]},{"longitude":-0.131511,"latitude":51.5096,"station_id":83,"station_name":"Panton Street, West End","ntrips":1,"trips":[{"station":"Denyer Street, Knightsbridge","duration":1140,"type":"inbound","distance":3622}]},{"longitude":-0.111778,"latitude":51.5159,"station_id":84,"station_name":"Breams Buildings, Holborn","ntrips":1,"trips":[{"station":"Waterloo Station 1, Waterloo","duration":600,"type":"inbound","distance":2573}]},{"longitude":-0.0786004,"latitude":51.5006,"station_id":85,"station_name":"Tanner Street, Bermondsey","ntrips":1,"trips":[{"station":"Guilford Street , Bloomsbury","duration":1140,"type":"outbound","distance":5163}]},{"longitude":-0.115157,"latitude":51.4895,"station_id":86,"station_name":"Sancroft Street, Vauxhall","ntrips":2,"trips":[{"station":"Kennington Lane Rail Bridge, Vauxhall","duration":180,"type":"outbound","distance":1114},{"station":"Clifford Street, Mayfair","duration":960,"type":"outbound","distance":5000}]},{"longitude":-0.0796846,"latitude":51.5165,"station_id":87,"station_name":"Devonshire Square, Liverpool Street","ntrips":2,"trips":[{"station":"Curlew Street, Shad Thames","duration":420,"type":"outbound","distance":2980},{"station":"Old Montague Street, Whitechapel","duration":240,"type":"inbound","distance":1916}]},{"longitude":-0.132053,"latitude":51.5186,"station_id":88,"station_name":"Bayley Street, Bloomsbury","ntrips":3,"trips":[{"station":"Rampayne Street, Pimlico","duration":840,"type":"inbound","distance":5074},{"station":"Baldwin Street, St. Luke's","duration":1080,"type":"inbound","distance":5850},{"station":"Birkenhead Street, King's Cross","duration":420,"type":"inbound","distance":3046}]},{"longitude":-0.12351,"latitude":51.5263,"station_id":89,"station_name":"Tavistock Place, Bloomsbury","ntrips":1,"trips":[{"station":"Malet Street, Bloomsbury","duration":240,"type":"inbound","distance":855}]},{"longitude":-0.139175,"latitude":51.533,"station_id":90,"station_name":"Harrington Square 1, Camden Town","ntrips":0,"trips":[]},{"longitude":-0.111015,"latitude":51.4937,"station_id":91,"station_name":"Walnut Tree Walk, Vauxhall","ntrips":1,"trips":[{"station":"Guilford Street , Bloomsbury","duration":1140,"type":"outbound","distance":4515}]},{"longitude":-0.100441,"latitude":51.4989,"station_id":92,"station_name":"Borough Road, Elephant & Castle","ntrips":0,"trips":[]},{"longitude":-0.109025,"latitude":51.5344,"station_id":93,"station_name":"Cloudesley Road, Angel","ntrips":1,"trips":[{"station":"Farringdon Street, Holborn","duration":540,"type":"outbound","distance":2451}]},{"longitude":-0.0858145,"latitude":51.4951,"station_id":94,"station_name":"Bricklayers Arms, Borough","ntrips":2,"trips":[{"station":"Queen Street 1, Bank","duration":540,"type":"outbound","distance":3449},{"station":"Lavington Street, Bankside","duration":540,"type":"outbound","distance":1603}]},{"longitude":-0.0973402,"latitude":51.5208,"station_id":95,"station_name":"Aldersgate Street, Barbican","ntrips":0,"trips":[]},{"longitude":-0.0785054,"latitude":51.531,"station_id":96,"station_name":"Falkirk Street, Hoxton","ntrips":1,"trips":[{"station":"Mostyn Grove, Bow","duration":1440,"type":"inbound","distance":4934}]},{"longitude":-0.183835,"latitude":51.4979,"station_id":97,"station_name":"Gloucester Road (North), Kensington","ntrips":2,"trips":[{"station":"Waterloo Place, St. James's","duration":1020,"type":"outbound","distance":4590},{"station":"Gloucester Road (North), Kensington","duration":1800,"type":"outbound","distance":0}]},{"longitude":-0.138231,"latitude":51.5255,"station_id":98,"station_name":"Hampstead Road, Euston","ntrips":1,"trips":[{"station":"Parkway, Camden Town","duration":420,"type":"inbound","distance":2201}]},{"longitude":-0.158264,"latitude":51.5146,"station_id":99,"station_name":"Old Quebec Street, Marylebone","ntrips":2,"trips":[{"station":"Queen's Gate, Kensington Gardens","duration":600,"type":"outbound","distance":3530},{"station":"Eccleston Place, Victoria","duration":780,"type":"inbound","distance":3818}]},{"longitude":-0.122807,"latitude":51.4904,"station_id":100,"station_name":"Albert Embankment, Vauxhall","ntrips":4,"trips":[{"station":"Liverpool Road (N1 Centre), Angel","duration":1800,"type":"inbound","distance":5961},{"station":"Liverpool Road (N1 Centre), Angel","duration":1800,"type":"inbound","distance":5961},{"station":"Normandy Road, Stockwell","duration":600,"type":"inbound","distance":3525},{"station":"Belgrove Street , King's Cross","duration":1200,"type":"inbound","distance":5728}]},{"longitude":-0.0929401,"latitude":51.5116,"station_id":101,"station_name":"Queen Street 1, Bank","ntrips":4,"trips":[{"station":"Rampayne Street, Pimlico","duration":1080,"type":"inbound","distance":5142},{"station":"Bricklayers Arms, Borough","duration":540,"type":"inbound","distance":3449},{"station":"Hollybush Gardens, Bethnal Green","duration":720,"type":"inbound","distance":6089},{"station":"New Road 1 , Whitechapel","duration":780,"type":"outbound","distance":4353}]},{"longitude":-0.0767934,"latitude":51.5134,"station_id":102,"station_name":"Jewry Street, Aldgate","ntrips":3,"trips":[{"station":"Clinton Road, Mile End","duration":1140,"type":"outbound","distance":5196},{"station":"Elizabeth Bridge, Victoria","duration":1620,"type":"inbound","distance":7863},{"station":"Westferry DLR, Limehouse","duration":960,"type":"inbound","distance":4430}]},{"longitude":-0.192539,"latitude":51.5047,"station_id":103,"station_name":"Vicarage Gate, Kensington","ntrips":3,"trips":[{"station":"Farm Street, Mayfair","duration":1020,"type":"outbound","distance":4414},{"station":"Waterloo Station 1, Waterloo","duration":1800,"type":"inbound","distance":6660},{"station":"Maclise Road, Olympia","duration":600,"type":"inbound","distance":2495}]},{"longitude":-0.0771213,"latitude":51.5116,"station_id":104,"station_name":"Crosswall, Tower","ntrips":3,"trips":[{"station":"Christopher Street, Liverpool Street","duration":480,"type":"outbound","distance":3295},{"station":"Lee Valley VeloPark, Queen Elizabeth Olympic Park","duration":1320,"type":"inbound","distance":13270},{"station":"Christian Street, Whitechapel","duration":240,"type":"inbound","distance":1258}]},{"longitude":-0.190241,"latitude":51.5155,"station_id":105,"station_name":"Westbourne Grove, Bayswater","ntrips":2,"trips":[{"station":"Woodstock Street, Mayfair","duration":840,"type":"outbound","distance":3903},{"station":"Ravenscourt Park Station, Hammersmith","duration":960,"type":"outbound","distance":5235}]},{"longitude":-0.147302,"latitude":51.5141,"station_id":106,"station_name":"Woodstock Street, Mayfair","ntrips":1,"trips":[{"station":"Westbourne Grove, Bayswater","duration":840,"type":"inbound","distance":3903}]},{"longitude":-0.0963176,"latitude":51.526,"station_id":107,"station_name":"Finsbury Leisure Centre, St. Luke's","ntrips":0,"trips":[]},{"longitude":-0.132102,"latitude":51.4981,"station_id":108,"station_name":"Abbey Orchard Street, Westminster","ntrips":3,"trips":[{"station":"Philpot Street, Whitechapel","duration":1620,"type":"outbound","distance":6630},{"station":"Emperor's Gate, South Kensington","duration":1140,"type":"inbound","distance":4689},{"station":"Turquoise Island, Notting Hill","duration":1680,"type":"inbound","distance":6739}]},{"longitude":-0.132329,"latitude":51.5156,"station_id":109,"station_name":"Soho Square, Soho","ntrips":3,"trips":[{"station":"Hoxton Street, Hoxton","duration":1440,"type":"inbound","distance":5027},{"station":"Wapping Lane, Wapping","duration":2160,"type":"inbound","distance":7171},{"station":"Wellington Row, Bethnal Green","duration":1680,"type":"inbound","distance":5534}]},{"longitude":-0.172529,"latitude":51.533,"station_id":110,"station_name":"Wellington Road, St. John's Wood","ntrips":0,"trips":[]},{"longitude":-0.157276,"latitude":51.51,"station_id":111,"station_name":"Park Lane, Hyde Park","ntrips":0,"trips":[]},{"longitude":-0.10527,"latitude":51.5158,"station_id":112,"station_name":"Stonecutter Street, Holborn","ntrips":1,"trips":[{"station":"Waterloo Station 2, Waterloo","duration":540,"type":"inbound","distance":2595}]},{"longitude":-0.183289,"latitude":51.4965,"station_id":113,"station_name":"Gloucester Road (Central), South Kensington","ntrips":0,"trips":[]},{"longitude":-0.158964,"latitude":51.5245,"station_id":114,"station_name":"Park Road (Baker Street), The Regent's Park","ntrips":0,"trips":[]},{"longitude":-0.0735377,"latitude":51.5142,"station_id":115,"station_name":"Braham Street, Aldgate","ntrips":2,"trips":[{"station":"Flamborough Street, Limehouse","duration":600,"type":"inbound","distance":3885},{"station":"Belvedere Road 1, South Bank","duration":1260,"type":"inbound","distance":4127}]},{"longitude":-0.141424,"latitude":51.5145,"station_id":116,"station_name":"Little Argyll Street, West End","ntrips":1,"trips":[{"station":"South Audley Street, Mayfair","duration":420,"type":"inbound","distance":1493}]},{"longitude":-0.114934,"latitude":51.4929,"station_id":117,"station_name":"Lollard Street, Vauxhall","ntrips":1,"trips":[{"station":"Horseferry Road, Westminster","duration":300,"type":"outbound","distance":1210}]},{"longitude":-0.135478,"latitude":51.4958,"station_id":118,"station_name":"Rochester Row, Westminster","ntrips":1,"trips":[{"station":"Serpentine Car Park, Hyde Park","duration":660,"type":"inbound","distance":4122}]},{"longitude":-0.0908478,"latitude":51.5259,"station_id":119,"station_name":"Bath Street, St. Luke's","ntrips":2,"trips":[{"station":"Bath Street, St. Luke's","duration":2400,"type":"outbound","distance":0},{"station":"Waterloo Station 1, Waterloo","duration":720,"type":"inbound","distance":4583}]},{"longitude":-0.0930808,"latitude":51.5157,"station_id":120,"station_name":"The Guildhall, Guildhall","ntrips":1,"trips":[{"station":"Clarges Street, Mayfair","duration":1260,"type":"outbound","distance":5923}]},{"longitude":-0.156167,"latitude":51.5189,"station_id":121,"station_name":"Baker Street, Marylebone","ntrips":0,"trips":[]},{"longitude":-0.0788698,"latitude":51.5211,"station_id":122,"station_name":"Norton Folgate, Liverpool Street","ntrips":4,"trips":[{"station":"New Road 1 , Whitechapel","duration":780,"type":"outbound","distance":2221},{"station":"Snowsfields, London Bridge","duration":720,"type":"inbound","distance":3457},{"station":"Queen Street 2, Bank","duration":480,"type":"inbound","distance":5710},{"station":"Pitfield Street North,Hoxton","duration":540,"type":"inbound","distance":2974}]},{"longitude":-0.104725,"latitude":51.5284,"station_id":123,"station_name":"St. John Street, Finsbury","ntrips":0,"trips":[]},{"longitude":-0.150905,"latitude":51.4965,"station_id":124,"station_name":"Eaton Square, Belgravia","ntrips":1,"trips":[{"station":"Bayswater Road, Hyde Park","duration":720,"type":"inbound","distance":3566}]},{"longitude":-0.0945243,"latitude":51.5007,"station_id":125,"station_name":"Borough High Street, The Borough","ntrips":5,"trips":[{"station":"Sedding Street, Sloane Square","duration":1560,"type":"inbound","distance":6347},{"station":"Normandy Road, Stockwell","duration":900,"type":"inbound","distance":4044},{"station":"Museum of London, Barbican","duration":660,"type":"outbound","distance":3466},{"station":"Queen's Circus, Battersea Park","duration":1260,"type":"inbound","distance":5166},{"station":"Doddington Grove, Kennington","duration":600,"type":"inbound","distance":1988}]},{"longitude":-0.0964969,"latitude":51.5178,"station_id":126,"station_name":"Museum of London, Barbican","ntrips":2,"trips":[{"station":"Graham Street, Angel","duration":420,"type":"inbound","distance":2083},{"station":"Borough High Street, The Borough","duration":660,"type":"inbound","distance":3466}]},{"longitude":-0.0938854,"latitude":51.517,"station_id":127,"station_name":"Wood Street, Guildhall","ntrips":0,"trips":[]},{"longitude":-0.185297,"latitude":51.4954,"station_id":128,"station_name":"Emperor's Gate, South Kensington","ntrips":3,"trips":[{"station":"Limerston Street, West Chelsea","duration":360,"type":"outbound","distance":1616},{"station":"Bank of England Museum, Bank","duration":1740,"type":"outbound","distance":9705},{"station":"Abbey Orchard Street, Westminster","duration":1140,"type":"outbound","distance":4689}]},{"longitude":-0.137044,"latitude":51.5119,"station_id":129,"station_name":"Golden Square, Soho","ntrips":2,"trips":[{"station":"Hinde Street, Marylebone","duration":420,"type":"outbound","distance":2031},{"station":"Gloucester Street, Pimlico","duration":840,"type":"inbound","distance":3522}]},{"longitude":-0.0754595,"latitude":51.5095,"station_id":130,"station_name":"Tower Gardens, Tower","ntrips":0,"trips":[]},{"longitude":-0.136793,"latitude":51.533,"station_id":131,"station_name":"Eversholt Street, Camden Town","ntrips":1,"trips":[{"station":"British Museum, Bloomsbury","duration":540,"type":"outbound","distance":2102}]},{"longitude":-0.0747549,"latitude":51.5236,"station_id":132,"station_name":"Bethnal Green Road, Shoreditch","ntrips":3,"trips":[{"station":"Mostyn Grove, Bow","duration":960,"type":"inbound","distance":4002},{"station":"Temple Gardens, Temple","duration":1140,"type":"outbound","distance":4724},{"station":"Gunmakers Lane, Old Ford","duration":780,"type":"inbound","distance":3430}]},{"longitude":-0.191462,"latitude":51.5014,"station_id":133,"station_name":"Derry Street, Kensington","ntrips":0,"trips":[]},{"longitude":-0.06797,"latitude":51.5049,"station_id":134,"station_name":"Wapping High Street, Wapping","ntrips":1,"trips":[{"station":"Hermitage Court, Wapping","duration":420,"type":"inbound","distance":429}]},{"longitude":-0.104709,"latitude":51.5233,"station_id":135,"station_name":"Clerkenwell Green, Clerkenwell","ntrips":6,"trips":[{"station":"Chelsea Bridge, Pimlico","duration":1320,"type":"inbound","distance":7312},{"station":"Shoreditch Park, Hoxton","duration":480,"type":"outbound","distance":2274},{"station":"Wellington Row, Bethnal Green","duration":720,"type":"outbound","distance":2987},{"station":"Howland Street, Fitzrovia","duration":720,"type":"inbound","distance":3725},{"station":"Sadlers Sports Centre, Finsbury","duration":120,"type":"inbound","distance":847},{"station":"Holborn Circus, Holborn","duration":240,"type":"inbound","distance":1346}]},{"longitude":-0.0974417,"latitude":51.512,"station_id":136,"station_name":"Queen Victoria Street, St. Paul's","ntrips":2,"trips":[{"station":"Waterloo Station 2, Waterloo","duration":1380,"type":"inbound","distance":2628},{"station":"West Smithfield Rotunda, Farringdon","duration":240,"type":"inbound","distance":1781}]},{"longitude":-0.157437,"latitude":51.5123,"station_id":138,"station_name":"Green Street, Mayfair","ntrips":2,"trips":[{"station":"Serpentine Car Park, Hyde Park","duration":600,"type":"inbound","distance":2321},{"station":"Paddington Green, Paddington","duration":300,"type":"inbound","distance":1659}]},{"longitude":-0.117975,"latitude":51.4949,"station_id":139,"station_name":"Lambeth Road, Vauxhall","ntrips":1,"trips":[{"station":"Kennington Cross, Kennington","duration":480,"type":"outbound","distance":1347}]},{"longitude":-0.0856342,"latitude":51.521,"station_id":140,"station_name":"Finsbury Square, Moorgate","ntrips":1,"trips":[{"station":"Great Russell Street, Bloomsbury","duration":720,"type":"outbound","distance":4279}]},{"longitude":-0.147204,"latitude":51.5153,"station_id":141,"station_name":"Chapel Place, Marylebone","ntrips":0,"trips":[]},{"longitude":-0.198287,"latitude":51.4937,"station_id":142,"station_name":"West Cromwell Road, Earl's Court","ntrips":1,"trips":[{"station":"Bramham Gardens, Earl's Court","duration":300,"type":"outbound","distance":850}]},{"longitude":-0.161204,"latitude":51.4969,"station_id":143,"station_name":"Pont Street, Knightsbridge","ntrips":4,"trips":[{"station":"St. George Street, Mayfair","duration":840,"type":"outbound","distance":2758},{"station":"Rampayne Street, Pimlico","duration":720,"type":"inbound","distance":2443},{"station":"Rampayne Street, Pimlico","duration":780,"type":"inbound","distance":2443},{"station":"Neville Gill Close, Wandsworth","duration":1620,"type":"inbound","distance":6808}]},{"longitude":-0.111436,"latitude":51.4889,"station_id":144,"station_name":"Kennington Cross, Kennington","ntrips":6,"trips":[{"station":"Geraldine Street, Elephant & Castle","duration":240,"type":"outbound","distance":1922},{"station":"Doddington Grove, Kennington","duration":360,"type":"inbound","distance":1751},{"station":"Lots Road, West Chelsea","duration":1140,"type":"outbound","distance":6126},{"station":"Eagle Wharf Road, Hoxton","duration":1680,"type":"outbound","distance":7528},{"station":"Lambeth Road, Vauxhall","duration":480,"type":"inbound","distance":1347},{"station":"Kennington Lane Rail Bridge, Vauxhall","duration":300,"type":"outbound","distance":1346}]},{"longitude":-0.202759,"latitude":51.5007,"station_id":145,"station_name":"Ilchester Place, Kensington","ntrips":0,"trips":[]},{"longitude":-0.129362,"latitude":51.4884,"station_id":146,"station_name":"Vauxhall Bridge, Pimlico","ntrips":0,"trips":[]},{"longitude":-0.116146,"latitude":51.5149,"station_id":147,"station_name":"Portugal Street, Holborn","ntrips":0,"trips":[]},{"longitude":-0.138365,"latitude":51.4921,"station_id":148,"station_name":"Tachbrook Street, Victoria","ntrips":2,"trips":[{"station":"Bermondsey Street, Bermondsey","duration":1380,"type":"inbound","distance":5213},{"station":"Sumner Place, South Kensington","duration":780,"type":"inbound","distance":3448}]},{"longitude":-0.110683,"latitude":51.4848,"station_id":149,"station_name":"Kennington Road Post Office, Oval","ntrips":0,"trips":[]},{"longitude":-0.168917,"latitude":51.4971,"station_id":150,"station_name":"Holy Trinity Brompton, Knightsbridge","ntrips":1,"trips":[{"station":"Shepherd's Bush Road North, Shepherd's Bush","duration":1080,"type":"inbound","distance":5135}]},{"longitude":-0.201555,"latitude":51.5121,"station_id":151,"station_name":"Chepstow Villas, Notting Hill","ntrips":0,"trips":[]},{"longitude":-0.101537,"latitude":51.4922,"station_id":152,"station_name":"Hampton Street, Walworth","ntrips":0,"trips":[]},{"longitude":-0.174293,"latitude":51.5118,"station_id":153,"station_name":"Bayswater Road, Hyde Park","ntrips":1,"trips":[{"station":"Eaton Square, Belgravia","duration":720,"type":"outbound","distance":3566}]},{"longitude":-0.113864,"latitude":51.504,"station_id":154,"station_name":"Waterloo Station 3, Waterloo","ntrips":1,"trips":[{"station":"Granby Street, Shoreditch","duration":1620,"type":"outbound","distance":6692}]},{"longitude":-0.191934,"latitude":51.4959,"station_id":155,"station_name":"Lexham Gardens, Kensington","ntrips":4,"trips":[{"station":"Black Lion Gate, Kensington Gardens","duration":840,"type":"inbound","distance":2243},{"station":"Seville Street, Knightsbridge","duration":720,"type":"outbound","distance":4292},{"station":"Exhibition Road Museums 2, South Kensington","duration":660,"type":"outbound","distance":13613},{"station":"Craven Street, Strand","duration":1320,"type":"inbound","distance":5300}]},{"longitude":-0.0929212,"latitude":51.4944,"station_id":156,"station_name":"New Kent Road, The Borough","ntrips":1,"trips":[{"station":"Cheapside, Bank","duration":600,"type":"outbound","distance":5827}]},{"longitude":-0.193068,"latitude":51.5004,"station_id":157,"station_name":"Wright's Lane, Kensington","ntrips":4,"trips":[{"station":"Clarges Street, Mayfair","duration":720,"type":"outbound","distance":5045},{"station":"Abingdon Villas, Kensington","duration":120,"type":"outbound","distance":595},{"station":"Abingdon Villas, Kensington","duration":180,"type":"inbound","distance":595},{"station":"Queen's Gate (South), South Kensington","duration":420,"type":"inbound","distance":1889}]},{"longitude":-0.19617,"latitude":51.4909,"station_id":158,"station_name":"Trebovir Road, Earl's Court","ntrips":1,"trips":[{"station":"Everington Street, Fulham","duration":480,"type":"outbound","distance":2568}]},{"longitude":-0.137841,"latitude":51.5146,"station_id":159,"station_name":"Great Marlborough Street, Soho","ntrips":2,"trips":[{"station":"Warren Street Station, Euston","duration":480,"type":"inbound","distance":1506},{"station":"Queen Street 2, Bank","duration":900,"type":"inbound","distance":4251}]},{"longitude":-0.131774,"latitude":51.5066,"station_id":160,"station_name":"Waterloo Place, St. James's","ntrips":4,"trips":[{"station":"Albert Gardens, Stepney","duration":2100,"type":"inbound","distance":6746},{"station":"Allington Street, Victoria","duration":1020,"type":"inbound","distance":2341},{"station":"Lambeth North Station, Waterloo","duration":660,"type":"inbound","distance":3338},{"station":"Gloucester Road (North), Kensington","duration":1020,"type":"inbound","distance":4590}]},{"longitude":-0.141334,"latitude":51.4923,"station_id":161,"station_name":"Guildhouse Street, Victoria","ntrips":2,"trips":[{"station":"Clarence Walk, Stockwell","duration":1140,"type":"inbound","distance":3813},{"station":"Old Brompton Road, South Kensington","duration":780,"type":"outbound","distance":3670}]},{"longitude":-0.121328,"latitude":51.5176,"station_id":162,"station_name":"Southampton Place, Holborn","ntrips":2,"trips":[{"station":"Cadogan Close, Victoria Park","duration":1860,"type":"inbound","distance":7956},{"station":"Baldwin Street, St. Luke's","duration":660,"type":"inbound","distance":3350}]},{"longitude":-0.167895,"latitude":51.4932,"station_id":163,"station_name":"Sloane Avenue, Knightsbridge","ntrips":5,"trips":[{"station":"Waterloo Bridge, South Bank","duration":1560,"type":"outbound","distance":5101},{"station":"Bevington Road West, North Kensington","duration":1200,"type":"outbound","distance":5805},{"station":"Eccleston Place, Victoria","duration":780,"type":"inbound","distance":2033},{"station":"Penywern Road, Earl's Court","duration":540,"type":"inbound","distance":3639},{"station":"Penfold Street, Marylebone","duration":1440,"type":"outbound","distance":5089}]},{"longitude":-0.183119,"latitude":51.5156,"station_id":164,"station_name":"Cleveland Gardens, Bayswater","ntrips":1,"trips":[{"station":"Bruton Street, Mayfair","duration":660,"type":"outbound","distance":3409}]},{"longitude":-0.183717,"latitude":51.5179,"station_id":165,"station_name":"Orsett Terrace, Bayswater","ntrips":3,"trips":[{"station":"Blenheim Crescent, Ladbroke Grove","duration":660,"type":"inbound","distance":2269},{"station":"Clarendon Road, Avondale","duration":540,"type":"outbound","distance":2416},{"station":"Blenheim Crescent, Ladbroke Grove","duration":660,"type":"inbound","distance":2269}]},{"longitude":-0.159237,"latitude":51.5019,"station_id":166,"station_name":"Seville Street, Knightsbridge","ntrips":4,"trips":[{"station":"Dorset Square, Marylebone","duration":540,"type":"inbound","distance":3836},{"station":"St. Peter's Terrace, Fulham","duration":1020,"type":"inbound","distance":5694},{"station":"Craven Street, Strand","duration":540,"type":"inbound","distance":2634},{"station":"Lexham Gardens, Kensington","duration":720,"type":"inbound","distance":4292}]},{"longitude":-0.147624,"latitude":51.494,"station_id":167,"station_name":"Eccleston Place, Victoria","ntrips":7,"trips":[{"station":"Sloane Avenue, Knightsbridge","duration":780,"type":"outbound","distance":2033},{"station":"Ilchester Gardens, Bayswater","duration":1200,"type":"inbound","distance":6213},{"station":"Manresa Road, Chelsea","duration":420,"type":"outbound","distance":2553},{"station":"Warwick Square, Pimlico","duration":240,"type":"inbound","distance":837},{"station":"Flood Street, Chelsea","duration":420,"type":"inbound","distance":2355},{"station":"Albert Bridge Road, Battersea Park","duration":960,"type":"inbound","distance":4428},{"station":"Old Quebec Street, Marylebone","duration":780,"type":"outbound","distance":3818}]},{"longitude":-0.195456,"latitude":51.5004,"station_id":168,"station_name":"Argyll Road, Kensington","ntrips":0,"trips":[]},{"longitude":-0.165164,"latitude":51.5147,"station_id":169,"station_name":"Porchester Place, Paddington","ntrips":3,"trips":[{"station":"Mallory Street, Marylebone","duration":420,"type":"inbound","distance":1517},{"station":"Porchester Place, Paddington","duration":1500,"type":"outbound","distance":0},{"station":"Porchester Place, Paddington","duration":1020,"type":"outbound","distance":0}]},{"longitude":-0.108068,"latitude":51.5278,"station_id":170,"station_name":"Hardwick Street, Clerkenwell","ntrips":0,"trips":[]},{"longitude":-0.186754,"latitude":51.4916,"station_id":171,"station_name":"Collingham Gardens, Earl's Court","ntrips":0,"trips":[]},{"longitude":-0.173716,"latitude":51.4912,"station_id":172,"station_name":"Sumner Place, South Kensington","ntrips":2,"trips":[{"station":"Seymour Place, Marylebone","duration":1500,"type":"outbound","distance":5080},{"station":"Tachbrook Street, Victoria","duration":780,"type":"outbound","distance":3448}]},{"longitude":-0.113001,"latitude":51.5049,"station_id":173,"station_name":"Waterloo Road, South Bank","ntrips":2,"trips":[{"station":"Cheapside, Bank","duration":480,"type":"outbound","distance":4643},{"station":"Tower Wharf, Bermondsey","duration":1140,"type":"inbound","distance":3302}]},{"longitude":-0.115163,"latitude":51.5125,"station_id":174,"station_name":"Strand, Strand","ntrips":3,"trips":[{"station":"Cranmer Road, Stockwell","duration":900,"type":"inbound","distance":4454},{"station":"Fashion Street, Whitechapel","duration":1020,"type":"inbound","distance":4801},{"station":"Islington Green, Angel","duration":840,"type":"inbound","distance":3533}]},{"longitude":-0.0811189,"latitude":51.5217,"station_id":175,"station_name":"Worship Street, Shoreditch","ntrips":1,"trips":[{"station":"Pritchard's Road, Bethnal Green","duration":420,"type":"inbound","distance":2435}]},{"longitude":-0.188099,"latitude":51.5179,"station_id":176,"station_name":"Gloucester Terrace, Bayswater","ntrips":0,"trips":[]},{"longitude":-0.140948,"latitude":51.4962,"station_id":177,"station_name":"Ashley Place, Victoria","ntrips":1,"trips":[{"station":"Page Street, Westminster","duration":300,"type":"outbound","distance":1837}]},{"longitude":-0.141924,"latitude":51.4899,"station_id":178,"station_name":"Warwick Square, Pimlico","ntrips":2,"trips":[{"station":"Queen's Circus, Battersea Park","duration":1080,"type":"outbound","distance":2305},{"station":"Eccleston Place, Victoria","duration":240,"type":"outbound","distance":837}]},{"longitude":-0.153645,"latitude":51.5129,"station_id":180,"station_name":"North Audley Street, Mayfair","ntrips":0,"trips":[]},{"longitude":-0.152318,"latitude":51.4994,"station_id":181,"station_name":"Belgrave Square, Belgravia","ntrips":2,"trips":[{"station":"Phillimore Gardens, Kensington","duration":900,"type":"outbound","distance":3765},{"station":"Vauxhall Walk, Vauxhall","duration":720,"type":"inbound","distance":4326}]},{"longitude":-0.165843,"latitude":51.522,"station_id":182,"station_name":"Bell Street, Marylebone","ntrips":1,"trips":[{"station":"Maida Vale, Maida Vale","duration":480,"type":"outbound","distance":1875}]},{"longitude":-0.136124,"latitude":51.4824,"station_id":183,"station_name":"Riverlight North, Nine Elms","ntrips":0,"trips":[]},{"longitude":-0.145212,"latitude":51.5207,"station_id":184,"station_name":"Portland Place, Marylebone","ntrips":1,"trips":[{"station":"Ashmole Estate, Oval","duration":1440,"type":"inbound","distance":6234}]},{"longitude":-0.140741,"latitude":51.4881,"station_id":185,"station_name":"Alderney Street, Pimlico","ntrips":0,"trips":[]},{"longitude":-0.175811,"latitude":51.5173,"station_id":186,"station_name":"South Wharf Road, Paddington","ntrips":1,"trips":[{"station":"Charlotte Street, Fitzrovia","duration":780,"type":"outbound","distance":3432}]},{"longitude":-0.178433,"latitude":51.4925,"station_id":187,"station_name":"Queen's Gate (South), South Kensington","ntrips":2,"trips":[{"station":"St. Martin's Street, West End","duration":1080,"type":"outbound","distance":4504},{"station":"Wright's Lane, Kensington","duration":420,"type":"outbound","distance":1889}]},{"longitude":-0.164394,"latitude":51.5165,"station_id":188,"station_name":"Nutford Place, Marylebone","ntrips":1,"trips":[{"station":"South Kensington Station, South Kensington","duration":1020,"type":"inbound","distance":4001}]},{"longitude":-0.109915,"latitude":51.5317,"station_id":189,"station_name":"Claremont Square, Angel","ntrips":1,"trips":[{"station":"Wellington Row, Bethnal Green","duration":840,"type":"inbound","distance":3241}]},{"longitude":-0.132846,"latitude":51.49,"station_id":190,"station_name":"Rampayne Street, Pimlico","ntrips":5,"trips":[{"station":"Pont Street, Knightsbridge","duration":720,"type":"outbound","distance":2443},{"station":"Pont Street, Knightsbridge","duration":780,"type":"outbound","distance":2443},{"station":"Bayley Street , Bloomsbury","duration":840,"type":"outbound","distance":5074},{"station":"Queen Street 1, Bank","duration":1080,"type":"outbound","distance":5142},{"station":"Queen's Circus, Battersea Park","duration":1080,"type":"inbound","distance":2391}]},{"longitude":-0.153521,"latitude":51.5031,"station_id":191,"station_name":"Hyde Park Corner, Hyde Park","ntrips":4,"trips":[{"station":"De Vere Gardens, Kensington","duration":1140,"type":"outbound","distance":2274},{"station":"Reardon Street, Wapping","duration":1860,"type":"inbound","distance":7807},{"station":"St. Mark's Road, North Kensington","duration":1200,"type":"inbound","distance":5993},{"station":"Lancaster Gate , Bayswater","duration":780,"type":"outbound","distance":2787}]},{"longitude":-0.133202,"latitude":51.5125,"station_id":192,"station_name":"Wardour Street, Soho","ntrips":0,"trips":[]},{"longitude":-0.100186,"latitude":51.5058,"station_id":193,"station_name":"Bankside Mix, Bankside","ntrips":2,"trips":[{"station":"Watney Street, Shadwell","duration":720,"type":"inbound","distance":4057},{"station":"Wellington Street , Strand","duration":480,"type":"inbound","distance":2681}]},{"longitude":-0.0917738,"latitude":51.5046,"station_id":194,"station_name":"Hop Exchange, The Borough","ntrips":2,"trips":[{"station":"Union Street, The Borough","duration":120,"type":"outbound","distance":1397},{"station":"Dock Street, Wapping","duration":600,"type":"inbound","distance":2918}]},{"longitude":-0.106238,"latitude":51.5072,"station_id":195,"station_name":"Milroy Walk, South Bank","ntrips":1,"trips":[{"station":"Mallory Street, Marylebone","duration":1500,"type":"outbound","distance":6464}]},{"longitude":-0.0984977,"latitude":51.5037,"station_id":196,"station_name":"Union Street, The Borough","ntrips":1,"trips":[{"station":"Hop Exchange, The Borough","duration":120,"type":"inbound","distance":1397}]},{"longitude":-0.111607,"latitude":51.5056,"station_id":197,"station_name":"Stamford Street, South Bank","ntrips":1,"trips":[{"station":"Finsbury Library , Finsbury","duration":720,"type":"inbound","distance":3245}]},{"longitude":-0.0829896,"latitude":51.5105,"station_id":199,"station_name":"Great Tower Street, Monument","ntrips":6,"trips":[{"station":"Bishop's Bridge Road West, Bayswater","duration":2580,"type":"inbound","distance":9651},{"station":"Roscoe Street, St. Luke's","duration":600,"type":"inbound","distance":4559},{"station":"Lambeth Palace Road, Waterloo","duration":900,"type":"outbound","distance":5200},{"station":"Bishop's Bridge Road West, Bayswater","duration":2640,"type":"inbound","distance":9651},{"station":"Waterloo Station 1, Waterloo","duration":780,"type":"inbound","distance":3661},{"station":"Great Russell Street, Bloomsbury","duration":720,"type":"inbound","distance":5169}]},{"longitude":-0.066078,"latitude":51.5149,"station_id":200,"station_name":"LMU Commercial Road, Whitechapel","ntrips":1,"trips":[{"station":"Tooley Street, Bermondsey","duration":540,"type":"outbound","distance":2905}]},{"longitude":-0.161113,"latitude":51.5226,"station_id":201,"station_name":"Dorset Square, Marylebone","ntrips":2,"trips":[{"station":"Russell Square Station, Bloomsbury","duration":840,"type":"outbound","distance":3109},{"station":"Seville Street, Knightsbridge","duration":540,"type":"outbound","distance":3836}]},{"longitude":-0.069542,"latitude":51.5124,"station_id":202,"station_name":"Leman Street, Aldgate","ntrips":1,"trips":[{"station":"Duke Street Hill, London Bridge","duration":420,"type":"outbound","distance":2957}]},{"longitude":-0.100791,"latitude":51.5182,"station_id":203,"station_name":"West Smithfield Rotunda, Farringdon","ntrips":3,"trips":[{"station":"Scala Street, Fitzrovia","duration":780,"type":"inbound","distance":3705},{"station":"New Road 1 , Whitechapel","duration":900,"type":"outbound","distance":4381},{"station":"Queen Victoria Street, St. Paul's","duration":240,"type":"outbound","distance":1781}]},{"longitude":-0.112433,"latitude":51.5266,"station_id":204,"station_name":"Margery Street, Clerkenwell","ntrips":1,"trips":[{"station":"Blackfriars Station, St. Paul's","duration":660,"type":"outbound","distance":2531}]},{"longitude":-0.06275,"latitude":51.5181,"station_id":206,"station_name":"New Road 1, Whitechapel","ntrips":4,"trips":[{"station":"Norton Folgate, Liverpool Street","duration":780,"type":"inbound","distance":2221},{"station":"West Smithfield Rotunda, Farringdon","duration":900,"type":"inbound","distance":4381},{"station":"Brushfield Street, Liverpool Street","duration":360,"type":"inbound","distance":2488},{"station":"Queen Street 1, Bank","duration":780,"type":"inbound","distance":4353}]},{"longitude":-0.153195,"latitude":51.5014,"station_id":207,"station_name":"Grosvenor Crescent, Belgravia","ntrips":0,"trips":[]},{"longitude":-0.166304,"latitude":51.5251,"station_id":208,"station_name":"Mallory Street, Marylebone","ntrips":2,"trips":[{"station":"Porchester Place, Paddington","duration":420,"type":"outbound","distance":1517},{"station":"Milroy Walk, South Bank","duration":1500,"type":"inbound","distance":6464}]},{"longitude":-0.165101,"latitude":51.4936,"station_id":209,"station_name":"Denyer Street, Knightsbridge","ntrips":2,"trips":[{"station":"Sedding Street, Sloane Square","duration":240,"type":"outbound","distance":872},{"station":"Panton Street, West End","duration":1140,"type":"outbound","distance":3622}]},{"longitude":-0.151926,"latitude":51.5168,"station_id":210,"station_name":"Hinde Street, Marylebone","ntrips":9,"trips":[{"station":"St Mary's Hospital, Paddington","duration":540,"type":"outbound","distance":2601},{"station":"Bolsover Street, Fitzrovia","duration":300,"type":"inbound","distance":1313},{"station":"The Tennis Courts, The Regent's Park","duration":360,"type":"outbound","distance":1408},{"station":"The Tennis Courts, The Regent's Park","duration":360,"type":"outbound","distance":1408},{"station":"The Tennis Courts, The Regent's Park","duration":240,"type":"inbound","distance":1983},{"station":"The Tennis Courts, The Regent's Park","duration":300,"type":"inbound","distance":1983},{"station":"Golden Square, Soho","duration":420,"type":"inbound","distance":2031},{"station":"Russell Gardens, Olympia","duration":1980,"type":"inbound","distance":7961},{"station":"Parkway, Camden Town","duration":1140,"type":"outbound","distance":3081}]},{"longitude":-0.158106,"latitude":51.4946,"station_id":211,"station_name":"Cadogan Place, Knightsbridge","ntrips":1,"trips":[{"station":"Phillimore Gardens, Kensington","duration":1140,"type":"inbound","distance":3759}]},{"longitude":-0.199004,"latitude":51.5066,"station_id":212,"station_name":"Campden Hill Road, Notting Hill","ntrips":0,"trips":[]},{"longitude":-0.149569,"latitude":51.5027,"station_id":213,"station_name":"Wellington Arch, Hyde Park","ntrips":0,"trips":[]},{"longitude":-0.130504,"latitude":51.5268,"station_id":214,"station_name":"Endsleigh Gardens, Euston","ntrips":2,"trips":[{"station":"Fournier Street, Whitechapel","duration":1320,"type":"outbound","distance":4811},{"station":"Kennington Lane Rail Bridge, Vauxhall","duration":1380,"type":"outbound","distance":6097}]},{"longitude":-0.0882854,"latitude":51.5191,"station_id":215,"station_name":"Moorfields, Moorgate","ntrips":2,"trips":[{"station":"Wenlock Road , Hoxton","duration":420,"type":"inbound","distance":3335},{"station":"Royal London Hospital, Whitechapel","duration":600,"type":"inbound","distance":3293}]},{"longitude":-0.181191,"latitude":51.4909,"station_id":216,"station_name":"Old Brompton Road, South Kensington","ntrips":2,"trips":[{"station":"Guildhouse Street, Victoria","duration":780,"type":"inbound","distance":3670},{"station":"Hibbert Street, Battersea","duration":840,"type":"inbound","distance":3486}]},{"longitude":-0.0824224,"latitude":51.5162,"station_id":217,"station_name":"Wormwood Street, Liverpool Street","ntrips":5,"trips":[{"station":"Waterloo Station 1, Waterloo","duration":900,"type":"inbound","distance":4152},{"station":"Lambeth Palace Road, Waterloo","duration":960,"type":"outbound","distance":4565},{"station":"Craven Street, Strand","duration":1140,"type":"outbound","distance":5117},{"station":"Bouverie Street, Temple","duration":540,"type":"outbound","distance":2707},{"station":"Hermitage Court, Wapping","duration":720,"type":"inbound","distance":4982}]},{"longitude":-0.170194,"latitude":51.4897,"station_id":218,"station_name":"St. Luke's Church, Chelsea","ntrips":2,"trips":[{"station":"Heath Road, Battersea","duration":900,"type":"inbound","distance":4141},{"station":"Falcon Road, Clapham Junction","duration":600,"type":"outbound","distance":3165}]},{"longitude":-0.190394,"latitude":51.4902,"station_id":219,"station_name":"Bramham Gardens, Earl's Court","ntrips":2,"trips":[{"station":"Maida Vale, Maida Vale","duration":960,"type":"inbound","distance":9228},{"station":"West Cromwell Road, Earl's Court","duration":300,"type":"inbound","distance":850}]},{"longitude":-0.166485,"latitude":51.4907,"station_id":220,"station_name":"Chelsea Green, Chelsea","ntrips":1,"trips":[{"station":"Queen's Gate, Kensington Gardens","duration":780,"type":"inbound","distance":2046}]},{"longitude":-0.130459,"latitude":51.4948,"station_id":221,"station_name":"Horseferry Road, Westminster","ntrips":1,"trips":[{"station":"Lollard Street, Vauxhall","duration":300,"type":"inbound","distance":1210}]},{"longitude":-0.15535,"latitude":51.5028,"station_id":222,"station_name":"Knightsbridge, Hyde Park","ntrips":0,"trips":[]},{"longitude":-0.0902209,"latitude":51.4915,"station_id":223,"station_name":"Rodney Road, Walworth","ntrips":1,"trips":[{"station":"St Martins Close, Camden Town","duration":2400,"type":"outbound","distance":7972}]},{"longitude":-0.1874024,"latitude":51.51031,"station_id":224,"station_name":"Queensway, Westminster","ntrips":0,"trips":[]},{"longitude":-0.196422,"latitude":51.5094,"station_id":225,"station_name":"Notting Hill Gate Station, Notting Hill","ntrips":1,"trips":[{"station":"St. Mark's Road, North Kensington","duration":540,"type":"outbound","distance":1920}]},{"longitude":-0.131961,"latitude":51.5084,"station_id":226,"station_name":"Charles II Street, West End","ntrips":0,"trips":[]},{"longitude":-0.115481,"latitude":51.5289,"station_id":227,"station_name":"Great Percy Street, Clerkenwell","ntrips":0,"trips":[]},{"longitude":-0.134621,"latitude":51.5074,"station_id":228,"station_name":"St. James's Square, St. James's","ntrips":0,"trips":[]},{"longitude":-0.12318,"latitude":51.5065,"station_id":229,"station_name":"Whitehall Place, Strand","ntrips":0,"trips":[]},{"longitude":-0.103137,"latitude":51.5067,"station_id":230,"station_name":"Poured Lines, Bankside","ntrips":0,"trips":[]},{"longitude":-0.178732,"latitude":51.494,"station_id":231,"station_name":"Queen's Gate (Central), South Kensington","ntrips":1,"trips":[{"station":"Grosvenor Square, Mayfair","duration":1080,"type":"outbound","distance":4254}]},{"longitude":-0.112753,"latitude":51.515,"station_id":232,"station_name":"Carey Street, Holborn","ntrips":1,"trips":[{"station":"Theobald's Road , Holborn","duration":240,"type":"inbound","distance":1333}]},{"longitude":-0.1307,"latitude":51.5078,"station_id":233,"station_name":"Pall Mall East, West End","ntrips":0,"trips":[]},{"longitude":-0.106993,"latitude":51.5345,"station_id":234,"station_name":"Liverpool Road (N1 Centre), Angel","ntrips":2,"trips":[{"station":"Albert Embankment, Vauxhall","duration":1800,"type":"outbound","distance":5961},{"station":"Albert Embankment, Vauxhall","duration":1800,"type":"outbound","distance":5961}]},{"longitude":-0.110889,"latitude":51.4957,"station_id":235,"station_name":"Kennington Road, Vauxhall","ntrips":1,"trips":[{"station":"Kennington Oval, Oval","duration":480,"type":"outbound","distance":1574}]},{"longitude":-0.0734389,"latitude":51.5184,"station_id":236,"station_name":"Fashion Street, Whitechapel","ntrips":1,"trips":[{"station":"Strand, Strand","duration":1020,"type":"outbound","distance":4801}]},{"longitude":-0.0671764,"latitude":51.5084,"station_id":237,"station_name":"Dock Street, Wapping","ntrips":3,"trips":[{"station":"Eagle Wharf Road, Hoxton","duration":2040,"type":"outbound","distance":4486},{"station":"Christopher Street, Liverpool Street","duration":540,"type":"outbound","distance":3662},{"station":"Hop Exchange, The Borough","duration":600,"type":"outbound","distance":2918}]},{"longitude":-0.175116,"latitude":51.5234,"station_id":238,"station_name":"Frampton Street, Paddington","ntrips":0,"trips":[]},{"longitude":-0.138019,"latitude":51.5244,"station_id":239,"station_name":"Warren Street Station, Euston","ntrips":8,"trips":[{"station":"Millbank Tower, Pimlico","duration":900,"type":"inbound","distance":4575},{"station":"Tyers Gate, Bermondsey","duration":1560,"type":"outbound","distance":8194},{"station":"Greenland Road, Camden Town","duration":600,"type":"outbound","distance":3185},{"station":"Greenland Road, Camden Town","duration":540,"type":"inbound","distance":2600},{"station":"Great Marlborough Street, Soho","duration":480,"type":"outbound","distance":1506},{"station":"Harrowby Street, Marylebone","duration":660,"type":"inbound","distance":3646},{"station":"Paddington Street, Marylebone","duration":480,"type":"inbound","distance":2196},{"station":"Addison Road, Holland Park","duration":1560,"type":"inbound","distance":9170}]},{"longitude":-0.105692,"latitude":51.5055,"station_id":240,"station_name":"Colombo Street, Southwark","ntrips":3,"trips":[{"station":"New Fetter Lane, Holborn","duration":540,"type":"outbound","distance":1748},{"station":"Fire Brigade Pier, Vauxhall","duration":660,"type":"inbound","distance":2309},{"station":"Farringdon Street, Holborn","duration":300,"type":"outbound","distance":1319}]},{"longitude":-0.151359,"latitude":51.522,"station_id":242,"station_name":"Beaumont Street, Marylebone","ntrips":1,"trips":[{"station":"Maida Vale, Maida Vale","duration":660,"type":"inbound","distance":3054}]},{"longitude":-0.139625,"latitude":51.491,"station_id":243,"station_name":"Gloucester Street, Pimlico","ntrips":2,"trips":[{"station":"Golden Square, Soho","duration":840,"type":"outbound","distance":3522},{"station":"Tallis Street, Temple","duration":1200,"type":"outbound","distance":5339}]},{"longitude":-0.128585,"latitude":51.5161,"station_id":244,"station_name":"Earnshaw Street, Covent Garden","ntrips":0,"trips":[]},{"longitude":-0.142207,"latitude":51.4854,"station_id":245,"station_name":"Grosvenor Road, Pimlico","ntrips":0,"trips":[]},{"longitude":-0.0999941,"latitude":51.5229,"station_id":246,"station_name":"Berry Street, Clerkenwell","ntrips":2,"trips":[{"station":"Old Street Station, St. Luke's","duration":300,"type":"inbound","distance":855},{"station":"Belford House, Haggerston","duration":600,"type":"inbound","distance":3064}]},{"longitude":-0.168314,"latitude":51.5301,"station_id":247,"station_name":"St. John's Wood Church, The Regent's Park","ntrips":2,"trips":[{"station":"Prince Albert Road, The Regent's Park","duration":240,"type":"inbound","distance":910},{"station":"Bishop's Bridge Road West, Bayswater","duration":540,"type":"outbound","distance":2765}]},{"longitude":-0.17028,"latitude":51.5065,"station_id":248,"station_name":"Triangle Car Park, Hyde Park","ntrips":0,"trips":[]},{"longitude":-0.0961911,"latitude":51.4986,"station_id":249,"station_name":"Harper Road, The Borough","ntrips":1,"trips":[{"station":"Wynne Road, Stockwell","duration":1020,"type":"outbound","distance":3798}]},{"longitude":-0.162727,"latitude":51.4899,"station_id":250,"station_name":"Royal Avenue 1, Chelsea","ntrips":0,"trips":[]},{"longitude":-0.079249,"latitude":51.5189,"station_id":251,"station_name":"Brushfield Street, Liverpool Street","ntrips":6,"trips":[{"station":"Nesham Street, Wapping","duration":540,"type":"inbound","distance":3538},{"station":"Royal London Hospital, Whitechapel","duration":420,"type":"outbound","distance":3072},{"station":"Shoreditch High Street, Shoreditch","duration":360,"type":"outbound","distance":1235},{"station":"Dunston Road , Haggerston","duration":540,"type":"outbound","distance":2370},{"station":"New Road 1 , Whitechapel","duration":360,"type":"outbound","distance":2488},{"station":"Belford House, Haggerston","duration":660,"type":"inbound","distance":2350}]},{"longitude":-0.116542,"latitude":51.5046,"station_id":252,"station_name":"Jubilee Gardens, South Bank","ntrips":0,"trips":[]},{"longitude":-0.0863797,"latitude":51.534,"station_id":253,"station_name":"Shoreditch Park, Hoxton","ntrips":1,"trips":[{"station":"Clerkenwell Green, Clerkenwell","duration":480,"type":"inbound","distance":2274}]},{"longitude":-0.106408,"latitude":51.5305,"station_id":254,"station_name":"Chadwell Street, Angel","ntrips":1,"trips":[{"station":"Finsbury Circus, Liverpool Street","duration":720,"type":"outbound","distance":2990}]},{"longitude":-0.179593,"latitude":51.5256,"station_id":255,"station_name":"Clifton Road, Maida Vale","ntrips":2,"trips":[{"station":"Warwick Avenue Station, Maida Vale","duration":120,"type":"inbound","distance":501},{"station":"Bolsover Street, Fitzrovia","duration":720,"type":"outbound","distance":3616}]},{"longitude":-0.116764,"latitude":51.5136,"station_id":256,"station_name":"Houghton Street, Strand","ntrips":5,"trips":[{"station":"Tate Modern, Bankside","duration":720,"type":"inbound","distance":2746},{"station":"Tate Modern, Bankside","duration":420,"type":"inbound","distance":2746},{"station":"Great Dover Street, The Borough","duration":1020,"type":"inbound","distance":3639},{"station":"Curlew Street, Shad Thames","duration":900,"type":"inbound","distance":4820},{"station":"Michael Road, Walham Green","duration":1500,"type":"inbound","distance":8353}]},{"longitude":-0.154907,"latitude":51.5225,"station_id":257,"station_name":"Westminster University, Marylebone","ntrips":0,"trips":[]},{"longitude":-0.178657,"latitude":51.5014,"station_id":258,"station_name":"Kensington Gore, Knightsbridge","ntrips":0,"trips":[]},{"longitude":-0.123248,"latitude":51.5049,"station_id":259,"station_name":"Bourne Street, Belgravia","ntrips":2,"trips":[{"station":"Royal Avenue 2, Chelsea","duration":540,"type":"outbound","distance":4420},{"station":"Bevington Road West, North Kensington","duration":1200,"type":"inbound","distance":8246}]},{"longitude":-0.135581,"latitude":51.5137,"station_id":260,"station_name":"Broadwick Street, Soho","ntrips":0,"trips":[]},{"longitude":-0.191351,"latitude":51.5135,"station_id":261,"station_name":"Princes Square, Bayswater","ntrips":1,"trips":[{"station":"Evesham Street, Avondale","duration":540,"type":"outbound","distance":2944}]},{"longitude":-0.103133,"latitude":51.4987,"station_id":262,"station_name":"LSBU (Borough Road), Elephant & Castle","ntrips":0,"trips":[]},{"longitude":-0.0806601,"latitude":51.5142,"station_id":263,"station_name":"St. Mary Axe, Aldgate","ntrips":3,"trips":[{"station":"Flamborough Street, Limehouse","duration":960,"type":"inbound","distance":3915},{"station":"Harford Street, Mile End","duration":780,"type":"inbound","distance":3365},{"station":"Charlotte Street, Fitzrovia","duration":1500,"type":"inbound","distance":6287}]},{"longitude":-0.109257,"latitude":51.5264,"station_id":264,"station_name":"Tysoe Street, Clerkenwell","ntrips":2,"trips":[{"station":"Theobald's Road , Holborn","duration":240,"type":"outbound","distance":890},{"station":"Belgrove Street , King's Cross","duration":420,"type":"outbound","distance":1629}]},{"longitude":-0.169249,"latitude":51.516,"station_id":265,"station_name":"Southwick Street, Paddington","ntrips":1,"trips":[{"station":"Smith Square, Westminster","duration":1320,"type":"outbound","distance":4964}]},{"longitude":-0.180246,"latitude":51.501,"station_id":266,"station_name":"Queen's Gate (North), Kensington","ntrips":2,"trips":[{"station":"Normand Park, West Kensington","duration":780,"type":"inbound","distance":3074},{"station":"Falcon Road, Clapham Junction","duration":1080,"type":"inbound","distance":4493}]},{"longitude":-0.132225,"latitude":51.4921,"station_id":267,"station_name":"Regency Street, Westminster","ntrips":2,"trips":[{"station":"Baylis Road, Waterloo","duration":600,"type":"outbound","distance":2410},{"station":"Ebury Bridge, Pimlico","duration":480,"type":"inbound","distance":1625}]},{"longitude":-0.144133,"latitude":51.4932,"station_id":268,"station_name":"Belgrave Road, Victoria","ntrips":2,"trips":[{"station":"Page Street, Westminster","duration":420,"type":"outbound","distance":2116},{"station":"Michael Road, Walham Green","duration":900,"type":"outbound","distance":4127}]},{"longitude":-0.0897408,"latitude":51.5008,"station_id":269,"station_name":"Empire Square, The Borough","ntrips":1,"trips":[{"station":"New Spring Gardens Walk, Vauxhall","duration":840,"type":"inbound","distance":3589}]},{"longitude":-0.122492,"latitude":51.4863,"station_id":270,"station_name":"Kennington Lane Rail Bridge, Vauxhall","ntrips":7,"trips":[{"station":"Fire Brigade Pier, Vauxhall","duration":360,"type":"outbound","distance":1560},{"station":"Cotton Garden Estate, Kennington","duration":300,"type":"outbound","distance":1303},{"station":"New North Road 1, Hoxton","duration":1560,"type":"inbound","distance":7590},{"station":"Lambeth Palace Road, Waterloo","duration":420,"type":"outbound","distance":2303},{"station":"Kennington Cross, Kennington","duration":300,"type":"inbound","distance":1346},{"station":"Endsleigh Gardens, Euston","duration":1380,"type":"inbound","distance":6097},{"station":"Sancroft Street, Vauxhall","duration":180,"type":"inbound","distance":1114}]},{"longitude":-0.156285,"latitude":51.5358,"station_id":271,"station_name":"London Zoo, The Regent's Park","ntrips":0,"trips":[]},{"longitude":-0.110699,"latitude":51.5014,"station_id":272,"station_name":"Baylis Road, Waterloo","ntrips":4,"trips":[{"station":"Kennington Oval, Oval","duration":660,"type":"inbound","distance":2302},{"station":"South Lambeth Road, Vauxhall","duration":660,"type":"inbound","distance":3025},{"station":"Regency Street, Westminster","duration":600,"type":"inbound","distance":2410},{"station":"Swan Street, The Borough","duration":360,"type":"inbound","distance":1636}]},{"longitude":-0.114686,"latitude":51.5061,"station_id":273,"station_name":"Belvedere Road 1, South Bank","ntrips":1,"trips":[{"station":"Braham Street, Aldgate","duration":1260,"type":"outbound","distance":4127}]},{"longitude":-0.205284,"latitude":51.4967,"station_id":274,"station_name":"Warwick Road, Olympia","ntrips":4,"trips":[{"station":"Holland Park, Kensington","duration":360,"type":"outbound","distance":1449},{"station":"William IV Street, Strand","duration":1380,"type":"outbound","distance":6609},{"station":"George Place Mews, Marylebone","duration":1320,"type":"outbound","distance":7618},{"station":"Ravenscourt Park Station, Hammersmith","duration":540,"type":"inbound","distance":3642}]},{"longitude":-0.0921764,"latitude":51.52,"station_id":275,"station_name":"Barbican Centre, Barbican","ntrips":1,"trips":[{"station":"Northington Street , Holborn","duration":660,"type":"inbound","distance":4298}]},{"longitude":-0.0849854,"latitude":51.5093,"station_id":276,"station_name":"Lower Thames Street, Monument","ntrips":1,"trips":[{"station":"Snowsfields, London Bridge","duration":360,"type":"inbound","distance":3246}]},{"longitude":-0.191496,"latitude":51.5032,"station_id":277,"station_name":"Kensington Church Street, Kensington","ntrips":0,"trips":[]},{"longitude":-0.079621,"latitude":51.5035,"station_id":278,"station_name":"Tooley Street, Bermondsey","ntrips":2,"trips":[{"station":"LMU Commercial Road, Whitechapel","duration":540,"type":"inbound","distance":2905},{"station":"Philpot Street, Whitechapel","duration":720,"type":"outbound","distance":2697}]},{"longitude":-0.176646,"latitude":51.5186,"station_id":279,"station_name":"North Wharf Road, Paddington","ntrips":1,"trips":[{"station":"Castlehaven Road, Camden Town","duration":1440,"type":"inbound","distance":5405}]},{"longitude":-0.162727,"latitude":51.4899,"station_id":280,"station_name":"Royal Avenue 2, Chelsea","ntrips":2,"trips":[{"station":"Hurlingham Park, Parsons Green","duration":900,"type":"inbound","distance":3874},{"station":"Bourne Street, Belgravia","duration":540,"type":"inbound","distance":4420}]},{"longitude":-0.127575,"latitude":51.4958,"station_id":281,"station_name":"Smith Square, Westminster","ntrips":3,"trips":[{"station":"Godliman Street, St. Paul's","duration":1020,"type":"inbound","distance":4062},{"station":"Southwick Street, Paddington","duration":1320,"type":"inbound","distance":4964},{"station":"Michael Road, Walham Green","duration":1440,"type":"inbound","distance":5846}]},{"longitude":-0.0596421,"latitude":51.5191,"station_id":282,"station_name":"Royal London Hospital, Whitechapel","ntrips":4,"trips":[{"station":"Brushfield Street, Liverpool Street","duration":420,"type":"inbound","distance":3072},{"station":"Aquatic Centre, Queen Elizabeth Olympic Park","duration":1260,"type":"outbound","distance":6012},{"station":"Hertford Road, De Beauvoir Town","duration":840,"type":"inbound","distance":4218},{"station":"Moorfields, Moorgate","duration":600,"type":"outbound","distance":3293}]},{"longitude":-0.118479,"latitude":51.5144,"station_id":283,"station_name":"Kingsway, Covent Garden","ntrips":0,"trips":[]},{"longitude":-0.112031,"latitude":51.4991,"station_id":284,"station_name":"Lambeth North Station, Waterloo","ntrips":1,"trips":[{"station":"Waterloo Place, St. James's","duration":660,"type":"outbound","distance":3338}]},{"longitude":-0.174654,"latitude":51.5273,"station_id":286,"station_name":"St. John's Wood Road, St. John's Wood","ntrips":1,"trips":[{"station":"Broadley Terrace, Marylebone","duration":180,"type":"outbound","distance":840}]},{"longitude":-0.128378,"latitude":51.5237,"station_id":287,"station_name":"Bedford Way, Bloomsbury","ntrips":1,"trips":[{"station":"Goswell Road (City Uni), Finsbury","duration":720,"type":"outbound","distance":2921}]},{"longitude":-0.147479,"latitude":51.4924,"station_id":288,"station_name":"Elizabeth Bridge, Victoria","ntrips":3,"trips":[{"station":"South Kensington Station, South Kensington","duration":780,"type":"outbound","distance":2938},{"station":"Warwick Row, Westminster","duration":240,"type":"inbound","distance":953},{"station":"Jewry Street, Aldgate","duration":1620,"type":"outbound","distance":7863}]},{"longitude":-0.151296,"latitude":51.5092,"station_id":289,"station_name":"South Audley Street, Mayfair","ntrips":1,"trips":[{"station":"Little Argyll Street, West End","duration":420,"type":"outbound","distance":1493}]},{"longitude":-0.1711032,"latitude":51.518268,"station_id":290,"station_name":"St Mary's Hospital, Westminster","ntrips":5,"trips":[{"station":"Bonner Gate, Victoria Park","duration":1980,"type":"outbound","distance":26029},{"station":"Hinde Street, Marylebone","duration":540,"type":"inbound","distance":2601},{"station":"Harrowby Street, Marylebone","duration":240,"type":"inbound","distance":1938},{"station":"Albert Gate, Hyde Park","duration":720,"type":"inbound","distance":3751},{"station":"Stanhope Gate, Mayfair","duration":600,"type":"outbound","distance":2323}]},{"longitude":-0.138089,"latitude":51.4848,"station_id":291,"station_name":"Claverton Street, Pimlico","ntrips":1,"trips":[{"station":"Palace Gate, Kensington Gardens","duration":1080,"type":"outbound","distance":4997}]},{"longitude":-0.165472,"latitude":51.4989,"station_id":292,"station_name":"Montpelier Street, Knightsbridge","ntrips":1,"trips":[{"station":"Boston Place, Marylebone","duration":900,"type":"inbound","distance":4355}]},{"longitude":-0.209494,"latitude":51.4982,"station_id":293,"station_name":"Kensington Olympia Station, Olympia","ntrips":1,"trips":[{"station":"Abingdon Villas, Kensington","duration":360,"type":"outbound","distance":1153}]},{"longitude":-0.135636,"latitude":51.4882,"station_id":294,"station_name":"St. George's Square, Pimlico","ntrips":1,"trips":[{"station":"Aintree Street, Fulham","duration":1680,"type":"inbound","distance":6270}]},{"longitude":-0.0927627,"latitude":51.5003,"station_id":295,"station_name":"Swan Street, The Borough","ntrips":2,"trips":[{"station":"Great Dover Street, The Borough","duration":120,"type":"inbound","distance":985},{"station":"Baylis Road, Waterloo","duration":360,"type":"outbound","distance":1636}]},{"longitude":-0.190603,"latitude":51.4936,"station_id":296,"station_name":"Knaresborough Place, Earl's Court","ntrips":0,"trips":[]},{"longitude":-0.106001,"latitude":51.4961,"station_id":297,"station_name":"Geraldine Street, Elephant & Castle","ntrips":3,"trips":[{"station":"Kennington Cross, Kennington","duration":240,"type":"inbound","distance":1922},{"station":"De Vere Gardens, Kensington","duration":1680,"type":"outbound","distance":6689},{"station":"New Spring Gardens Walk, Vauxhall","duration":480,"type":"outbound","distance":2160}]},{"longitude":-0.0741892,"latitude":51.5023,"station_id":298,"station_name":"Curlew Street, Shad Thames","ntrips":3,"trips":[{"station":"Devonshire Square, Liverpool Street","duration":420,"type":"inbound","distance":2980},{"station":"Lavington Street, Bankside","duration":600,"type":"outbound","distance":2365},{"station":"Houghton Street, Strand","duration":900,"type":"outbound","distance":4820}]},{"longitude":-0.136929,"latitude":51.494,"station_id":299,"station_name":"Vincent Square, Westminster","ntrips":0,"trips":[]},{"longitude":-0.17273,"latitude":51.505,"station_id":300,"station_name":"Serpentine Car Park, Hyde Park","ntrips":5,"trips":[{"station":"Putney Bridge Road, East Putney","duration":1920,"type":"inbound","distance":7168},{"station":"Palace Gate, Kensington Gardens","duration":420,"type":"inbound","distance":1137},{"station":"Serpentine Car Park, Hyde Park","duration":1260,"type":"outbound","distance":0},{"station":"Rochester Row, Westminster","duration":660,"type":"outbound","distance":4122},{"station":"Green Street, Mayfair","duration":600,"type":"outbound","distance":2321}]},{"longitude":-0.148105,"latitude":51.5148,"station_id":301,"station_name":"Marylebone Lane, Marylebone","ntrips":2,"trips":[{"station":"Harcourt Terrace, West Brompton","duration":1440,"type":"inbound","distance":6231},{"station":"Warwick Row, Westminster","duration":720,"type":"inbound","distance":3866}]},{"longitude":-0.216573,"latitude":51.4669,"station_id":302,"station_name":"Putney Pier, Wandsworth","ntrips":0,"trips":[]},{"longitude":-0.158456,"latitude":51.503,"station_id":303,"station_name":"Albert Gate, Hyde Park","ntrips":2,"trips":[{"station":"St Mary's Hospital, Paddington","duration":720,"type":"outbound","distance":3751},{"station":"Black Lion Gate, Kensington Gardens","duration":780,"type":"inbound","distance":3807}]},{"longitude":-0.115854,"latitude":51.4868,"station_id":305,"station_name":"Kennington Lane Tesco, Vauxhall","ntrips":0,"trips":[]},{"longitude":-0.135026,"latitude":51.5182,"station_id":306,"station_name":"Rathbone Street, Fitzrovia","ntrips":1,"trips":[{"station":"Craven Street, Strand","duration":540,"type":"outbound","distance":2545}]},{"longitude":-0.187843,"latitude":51.5099,"station_id":307,"station_name":"Black Lion Gate, Kensington Gardens","ntrips":3,"trips":[{"station":"Black Lion Gate, Kensington Gardens","duration":2040,"type":"outbound","distance":0},{"station":"Lexham Gardens, Kensington","duration":840,"type":"outbound","distance":2243},{"station":"Albert Gate, Hyde Park","duration":780,"type":"outbound","distance":3807}]},{"longitude":-0.0856663,"latitude":51.4991,"station_id":308,"station_name":"Long Lane, Bermondsey","ntrips":0,"trips":[]},{"longitude":-0.119048,"latitude":51.5096,"station_id":309,"station_name":"Embankment (Savoy), Strand","ntrips":1,"trips":[{"station":"Waterloo Station 1, Waterloo","duration":360,"type":"inbound","distance":2200}]},{"longitude":-0.116912,"latitude":51.4909,"station_id":310,"station_name":"Black Prince Road, Vauxhall","ntrips":0,"trips":[]},{"longitude":-0.140486,"latitude":51.5192,"station_id":311,"station_name":"Foley Street, Fitzrovia","ntrips":1,"trips":[{"station":"Belgrove Street , King's Cross","duration":720,"type":"inbound","distance":2425}]},{"longitude":-0.176771,"latitude":51.5309,"station_id":312,"station_name":"Grove End Road, St. John's Wood","ntrips":2,"trips":[{"station":"Lisson Grove, St. John's Wood","duration":180,"type":"outbound","distance":608},{"station":"Harrowby Street, Marylebone","duration":600,"type":"outbound","distance":1951}]},{"longitude":-0.138073,"latitude":51.5173,"station_id":313,"station_name":"Wells Street, Fitzrovia","ntrips":1,"trips":[{"station":"Holland Park, Kensington","duration":1440,"type":"inbound","distance":5563}]},{"longitude":-0.0831594,"latitude":51.5009,"station_id":314,"station_name":"Tyers Gate, Bermondsey","ntrips":2,"trips":[{"station":"Warren Street Station, Euston","duration":1560,"type":"inbound","distance":8194},{"station":"Wandsworth Rd, Isley Court, Wandsworth Road","duration":1680,"type":"inbound","distance":7183}]},{"longitude":-0.153464,"latitude":51.5254,"station_id":315,"station_name":"The Tennis Courts, The Regent's Park","ntrips":4,"trips":[{"station":"Hinde Street, Marylebone","duration":360,"type":"inbound","distance":1408},{"station":"Hinde Street, Marylebone","duration":360,"type":"inbound","distance":1408},{"station":"Hinde Street, Marylebone","duration":240,"type":"outbound","distance":1983},{"station":"Hinde Street, Marylebone","duration":300,"type":"outbound","distance":1983}]},{"longitude":-0.1429606,"latitude":51.497998,"station_id":316,"station_name":"Warwick Row, Westminster","ntrips":3,"trips":[{"station":"Southampton Street, Strand","duration":1560,"type":"outbound","distance":2912},{"station":"Elizabeth Bridge, Victoria","duration":240,"type":"outbound","distance":953},{"station":"Marylebone Lane, Marylebone","duration":720,"type":"outbound","distance":3866}]},{"longitude":-0.0939135,"latitude":51.4968,"station_id":317,"station_name":"Dickens Square, Borough","ntrips":2,"trips":[{"station":"Clapham Common North Side, Clapham Common","duration":1620,"type":"inbound","distance":7414},{"station":"Arundel Street, Temple","duration":660,"type":"outbound","distance":1428}]},{"longitude":-0.138846,"latitude":51.51,"station_id":318,"station_name":"Sackville Street, Mayfair","ntrips":0,"trips":[]},{"longitude":-0.0885428,"latitude":51.527,"station_id":319,"station_name":"Baldwin Street, St. Luke's","ntrips":6,"trips":[{"station":"Bayley Street , Bloomsbury","duration":1080,"type":"outbound","distance":5850},{"station":"Southampton Place, Holborn","duration":660,"type":"outbound","distance":3350},{"station":"Pindar Street, Liverpool Street","duration":300,"type":"inbound","distance":1069},{"station":"Paddington Street, Marylebone","duration":1500,"type":"inbound","distance":5323},{"station":"Abingdon Green, Westminster","duration":1020,"type":"outbound","distance":5926},{"station":"George Street, Marylebone","duration":1320,"type":"outbound","distance":6058}]},{"longitude":-0.139956,"latitude":51.4936,"station_id":320,"station_name":"Queen Mother Sports Centre, Victoria","ntrips":0,"trips":[]},{"longitude":-0.081608,"latitude":51.4979,"station_id":321,"station_name":"Bermondsey Street, Bermondsey","ntrips":2,"trips":[{"station":"Tachbrook Street, Victoria","duration":1380,"type":"outbound","distance":5213},{"station":"Battersea Power Station, Battersea Park","duration":1500,"type":"inbound","distance":6887}]},{"longitude":-0.073955,"latitude":51.5263,"station_id":322,"station_name":"Palissy Street, Shoreditch","ntrips":0,"trips":[]},{"longitude":-0.083067,"latitude":51.5232,"station_id":323,"station_name":"Clifton Street, Shoreditch","ntrips":3,"trips":[{"station":"Bonner Gate, Victoria Park","duration":540,"type":"inbound","distance":32670},{"station":"Pindar Street, Liverpool Street","duration":120,"type":"inbound","distance":857},{"station":"Wellington Row, Bethnal Green","duration":420,"type":"inbound","distance":1888}]},{"longitude":-0.101384,"latitude":51.4965,"station_id":324,"station_name":"Ontario Street, Elephant & Castle","ntrips":1,"trips":[{"station":"Lambeth Palace Road, Waterloo","duration":360,"type":"inbound","distance":1605}]},{"longitude":-0.129698,"latitude":51.5091,"station_id":325,"station_name":"St. Martin's Street, West End","ntrips":1,"trips":[{"station":"Queen's Gate (South), South Kensington","duration":1080,"type":"inbound","distance":4504}]},{"longitude":-0.0999811,"latitude":51.5327,"station_id":326,"station_name":"Graham Street, Angel","ntrips":3,"trips":[{"station":"Museum of London, Barbican","duration":420,"type":"outbound","distance":2083},{"station":"Prince of Wales Drive, Battersea Park","duration":2940,"type":"inbound","distance":9959},{"station":"Duke Street Hill, London Bridge","duration":840,"type":"outbound","distance":5152}]},{"longitude":-0.086016,"latitude":51.5311,"station_id":327,"station_name":"New North Road 1, Hoxton","ntrips":1,"trips":[{"station":"Kennington Lane Rail Bridge, Vauxhall","duration":1560,"type":"outbound","distance":7590}]},{"longitude":-0.086016,"latitude":51.5311,"station_id":328,"station_name":"New North Road 2, Hoxton","ntrips":0,"trips":[]},{"longitude":-0.160854,"latitude":51.5359,"station_id":329,"station_name":"Prince Albert Road, The Regent's Park","ntrips":1,"trips":[{"station":"St. John's Wood Church, The Regent's Park","duration":240,"type":"outbound","distance":910}]},{"longitude":-0.179135,"latitude":51.5164,"station_id":330,"station_name":"Eastbourne Mews, Paddington","ntrips":0,"trips":[]},{"longitude":-0.0898879,"latitude":51.5209,"station_id":331,"station_name":"Bunhill Row, Moorgate","ntrips":2,"trips":[{"station":"Regent's Row , Haggerston ","duration":900,"type":"outbound","distance":4020},{"station":"Regent's Row , Haggerston ","duration":960,"type":"outbound","distance":4020}]},{"longitude":-0.194758,"latitude":51.4933,"station_id":332,"station_name":"Nevern Place, Earl's Court","ntrips":1,"trips":[{"station":"Blenheim Crescent, Ladbroke Grove","duration":720,"type":"inbound","distance":3612}]},{"longitude":-0.193764,"latitude":51.5086,"station_id":333,"station_name":"Palace Gardens Terrace, Notting Hill","ntrips":0,"trips":[]},{"longitude":-0.115851,"latitude":51.505,"station_id":334,"station_name":"Concert Hall Approach 1, South Bank","ntrips":0,"trips":[]},{"longitude":-0.120719,"latitude":51.512,"station_id":335,"station_name":"Tavistock Street, Covent Garden","ntrips":0,"trips":[]},{"longitude":-0.115851,"latitude":51.505,"station_id":336,"station_name":"Concert Hall Approach 2, South Bank","ntrips":2,"trips":[{"station":"New Globe Walk, Bankside","duration":720,"type":"outbound","distance":1923},{"station":"Murray Grove , Hoxton","duration":1020,"type":"inbound","distance":5710}]},{"longitude":-0.197525,"latitude":51.5111,"station_id":337,"station_name":"Pembridge Villas, Notting Hill","ntrips":0,"trips":[]},{"longitude":-0.119643,"latitude":51.5118,"station_id":338,"station_name":"Wellington Street, Strand","ntrips":1,"trips":[{"station":"Bankside Mix, Bankside","duration":480,"type":"outbound","distance":2681}]},{"longitude":-0.111781,"latitude":51.5333,"station_id":339,"station_name":"Risinghill Street, Angel","ntrips":0,"trips":[]},{"longitude":-0.0875874,"latitude":51.5144,"station_id":340,"station_name":"Bank of England Museum, Bank","ntrips":3,"trips":[{"station":"Waterloo Station 1, Waterloo","duration":840,"type":"inbound","distance":5321},{"station":"Waterloo Station 1, Waterloo","duration":900,"type":"inbound","distance":5321},{"station":"Emperor's Gate, South Kensington","duration":1740,"type":"inbound","distance":9705}]},{"longitude":-0.126021,"latitude":51.5081,"station_id":341,"station_name":"Craven Street, Strand","ntrips":6,"trips":[{"station":"St. George Street, Mayfair","duration":660,"type":"outbound","distance":1734},{"station":"Wormwood Street, Liverpool Street","duration":1140,"type":"inbound","distance":5117},{"station":"Seville Street, Knightsbridge","duration":540,"type":"outbound","distance":2634},{"station":"Lexham Gardens, Kensington","duration":1320,"type":"outbound","distance":5300},{"station":"Stanhope Gate, Mayfair","duration":720,"type":"outbound","distance":2196},{"station":"Rathbone Street, Fitzrovia","duration":540,"type":"inbound","distance":2545}]},{"longitude":-0.150181,"latitude":51.5369,"station_id":343,"station_name":"London Zoo Car Park, The Regent's Park","ntrips":0,"trips":[]},{"longitude":-0.101026,"latitude":51.5282,"station_id":344,"station_name":"Goswell Road (City Uni), Finsbury","ntrips":1,"trips":[{"station":"Bedford Way, Bloomsbury","duration":720,"type":"inbound","distance":2921}]},{"longitude":-0.166879,"latitude":51.488,"station_id":345,"station_name":"Flood Street, Chelsea","ntrips":5,"trips":[{"station":"Ashley Crescent, Battersea","duration":900,"type":"inbound","distance":3869},{"station":"Blythe Road West, Shepherd's Bush","duration":1260,"type":"inbound","distance":5425},{"station":"Vicarage Crescent, Battersea","duration":720,"type":"inbound","distance":3393},{"station":"Manresa Road, Chelsea","duration":120,"type":"outbound","distance":353},{"station":"Eccleston Place, Victoria","duration":420,"type":"outbound","distance":2355}]},{"longitude":-0.113936,"latitude":51.5001,"station_id":347,"station_name":"Lower Marsh, Waterloo","ntrips":3,"trips":[{"station":"Normandy Road, Stockwell","duration":1020,"type":"inbound","distance":3614},{"station":"Vauxhall Cross, Vauxhall","duration":540,"type":"inbound","distance":2003},{"station":"Buckingham Gate, Westminster","duration":720,"type":"outbound","distance":2531}]},{"longitude":-0.150481,"latitude":51.5122,"station_id":348,"station_name":"Grosvenor Square, Mayfair","ntrips":3,"trips":[{"station":"Chesilton Road, Fulham","duration":1680,"type":"inbound","distance":6858},{"station":"Russell Gardens, Olympia","duration":1860,"type":"inbound","distance":5721},{"station":"Queen's Gate (Central), South Kensington","duration":1080,"type":"inbound","distance":4254}]},{"longitude":-0.142783,"latitude":51.512,"station_id":349,"station_name":"St. George Street, Mayfair","ntrips":2,"trips":[{"station":"Pont Street, Knightsbridge","duration":840,"type":"inbound","distance":2758},{"station":"Craven Street, Strand","duration":660,"type":"inbound","distance":1734}]},{"longitude":-0.179854,"latitude":51.5017,"station_id":350,"station_name":"Queen's Gate, Kensington Gardens","ntrips":2,"trips":[{"station":"Chelsea Green, Chelsea","duration":780,"type":"outbound","distance":2046},{"station":"Old Quebec Street, Marylebone","duration":600,"type":"inbound","distance":3530}]},{"longitude":-0.097122,"latitude":51.5294,"station_id":351,"station_name":"Macclesfield Rd, St Lukes","ntrips":1,"trips":[{"station":"Guilford Street , Bloomsbury","duration":540,"type":"outbound","distance":2717}]},{"longitude":-0.116625,"latitude":51.487,"station_id":352,"station_name":"Vauxhall Street, Vauxhall","ntrips":1,"trips":[{"station":"Archbishop's Park, Waterloo","duration":360,"type":"inbound","distance":1960}]},{"longitude":-0.134234,"latitude":51.4946,"station_id":353,"station_name":"Greycoat Street, Westminster","ntrips":0,"trips":[]},{"longitude":-0.123702,"latitude":51.5068,"station_id":354,"station_name":"Northumberland Avenue, Strand","ntrips":0,"trips":[]},{"longitude":-0.117286,"latitude":51.4866,"station_id":355,"station_name":"Oval Way, Vauxhall","ntrips":0,"trips":[]},{"longitude":-0.173881,"latitude":51.4944,"station_id":356,"station_name":"South Kensington Station, South Kensington","ntrips":2,"trips":[{"station":"Elizabeth Bridge, Victoria","duration":780,"type":"inbound","distance":2938},{"station":"Nutford Place, Marylebone","duration":1020,"type":"outbound","distance":4001}]},{"longitude":-0.139016,"latitude":51.521,"station_id":357,"station_name":"Howland Street, Fitzrovia","ntrips":2,"trips":[{"station":"Clerkenwell Green, Clerkenwell","duration":720,"type":"outbound","distance":3725},{"station":"Percival Street, Finsbury","duration":840,"type":"inbound","distance":4115}]},{"longitude":-0.124332,"latitude":51.5164,"station_id":358,"station_name":"High Holborn, Covent Garden","ntrips":1,"trips":[{"station":"Finsbury Circus, Liverpool Street","duration":840,"type":"inbound","distance":3616}]},{"longitude":-0.135441,"latitude":51.4978,"station_id":359,"station_name":"Butler Place, Westminster","ntrips":0,"trips":[]},{"longitude":-0.138734,"latitude":51.4968,"station_id":360,"station_name":"Howick Place, Westminster","ntrips":1,"trips":[{"station":"Gaywood  Street, Elephant & Castle","duration":720,"type":"inbound","distance":2745}]},{"longitude":-0.113864,"latitude":51.504,"station_id":361,"station_name":"Waterloo Station 2, Waterloo","ntrips":3,"trips":[{"station":"Queen Victoria Street, St. Paul's","duration":1380,"type":"outbound","distance":2628},{"station":"Red Lion Street, Holborn","duration":720,"type":"outbound","distance":3159},{"station":"Stonecutter Street, Holborn","duration":540,"type":"outbound","distance":2595}]},{"longitude":-0.133952,"latitude":51.5363,"station_id":362,"station_name":"Royal College Street, Camden Town","ntrips":0,"trips":[]},{"longitude":-0.171185,"latitude":51.5291,"station_id":363,"station_name":"Lord's, St. John's Wood","ntrips":0,"trips":[]},{"longitude":-0.132339,"latitude":51.5197,"station_id":364,"station_name":"Alfred Place, Bloomsbury","ntrips":0,"trips":[]},{"longitude":-0.100168,"latitude":51.5303,"station_id":365,"station_name":"City Road, Angel","ntrips":0,"trips":[]},{"longitude":-0.151126,"latitude":51.5109,"station_id":366,"station_name":"Millennium Hotel, Mayfair","ntrips":0,"trips":[]},{"longitude":-0.164208,"latitude":51.5174,"station_id":367,"station_name":"Harrowby Street, Marylebone","ntrips":3,"trips":[{"station":"Grove End Road, St. John's Wood","duration":600,"type":"inbound","distance":1951},{"station":"Warren Street Station, Euston","duration":660,"type":"outbound","distance":3646},{"station":"St Mary's Hospital, Paddington","duration":240,"type":"outbound","distance":1938}]},{"longitude":-0.159341,"latitude":51.5002,"station_id":368,"station_name":"Harriet Street, Knightsbridge","ntrips":1,"trips":[{"station":"South Parade, Chelsea","duration":1020,"type":"inbound","distance":2560}]},{"longitude":-0.174593,"latitude":51.5202,"station_id":370,"station_name":"Paddington Green, Paddington","ntrips":1,"trips":[{"station":"Green Street, Mayfair","duration":300,"type":"outbound","distance":1659}]},{"longitude":-0.10988,"latitude":51.4978,"station_id":371,"station_name":"King Edward Walk, Waterloo","ntrips":0,"trips":[]},{"longitude":-0.117863,"latitude":51.5152,"station_id":372,"station_name":"Sardinia Street, Holborn","ntrips":2,"trips":[{"station":"Central House, Aldgate","duration":900,"type":"outbound","distance":4602},{"station":"Handyside Street, King's Cross","duration":720,"type":"inbound","distance":3284}]},{"longitude":-0.176416,"latitude":51.4998,"station_id":373,"station_name":"Prince Consort Road, Knightsbridge","ntrips":0,"trips":[]},{"longitude":-0.113864,"latitude":51.504,"station_id":374,"station_name":"Waterloo Station 1, Waterloo","ntrips":10,"trips":[{"station":"Bank of England Museum, Bank","duration":840,"type":"outbound","distance":5321},{"station":"King Edward Street, St Pauls","duration":900,"type":"outbound","distance":3476},{"station":"Bank of England Museum, Bank","duration":900,"type":"outbound","distance":5321},{"station":"Bath Street, St. Luke's","duration":720,"type":"outbound","distance":4583},{"station":"Wormwood Street, Liverpool Street","duration":900,"type":"outbound","distance":4152},{"station":"Vicarage Gate, Kensington","duration":1800,"type":"outbound","distance":6660},{"station":"Embankment (Savoy), Strand","duration":360,"type":"outbound","distance":2200},{"station":"Great Tower Street, Monument","duration":780,"type":"outbound","distance":3661},{"station":"Breams Buildings, Holborn","duration":600,"type":"outbound","distance":2573},{"station":"William IV Street, Strand","duration":480,"type":"outbound","distance":2789}]},{"longitude":-0.194393,"latitude":51.5019,"station_id":375,"station_name":"Kensington Town Hall, Kensington","ntrips":0,"trips":[]},{"longitude":-0.125675,"latitude":51.4919,"station_id":376,"station_name":"Millbank Tower, Pimlico","ntrips":1,"trips":[{"station":"Warren Street Station, Euston","duration":900,"type":"outbound","distance":4575}]},{"longitude":-0.113657,"latitude":51.5054,"station_id":377,"station_name":"Waterloo Bridge, South Bank","ntrips":1,"trips":[{"station":"Sloane Avenue, Knightsbridge","duration":1560,"type":"inbound","distance":5101}]},{"longitude":-0.179078,"latitude":51.4956,"station_id":378,"station_name":"Natural History Museum, South Kensington","ntrips":1,"trips":[{"station":"Harcourt Terrace, West Brompton","duration":360,"type":"inbound","distance":1407}]},{"longitude":-0.200838,"latitude":51.5143,"station_id":379,"station_name":"Turquoise Island, Notting Hill","ntrips":3,"trips":[{"station":"Abbey Orchard Street, Westminster","duration":1680,"type":"outbound","distance":6739},{"station":"Blythe Road West, Shepherd's Bush","duration":720,"type":"inbound","distance":3118},{"station":"Bishop's Bridge Road West, Bayswater","duration":660,"type":"outbound","distance":991}]},