[{"longitude":-0.109971,"latitude":51.5292,"station_id":1,"station_name":"River Street, Clerkenwell","ntrips":0,"trips":[]},{"longitude":-0.197574,"latitude":51.4996,"station_id":2,"station_name":"Phillimore Gardens, Kensington","ntrips":4,"trips":[{"station":"Belgrave Square, Belgravia","duration":900,"type":"inbound","distance":3765,"time":"08:11","ts":220},{"station":"Seymour Place, Marylebone","duration":900,"type":"inbound","distance":4529,"time":"08:11","ts":220},{"station":"Curzon Street, Mayfair","duration":1140,"type":"outbound","distance":4612,"time":"09:02","ts":1240},{"station":"Cadogan Place, Knightsbridge","duration":1140,"type":"outbound","distance":3759,"time":"09:10","ts":1400}]},{"longitude":-0.0846057,"latitude":51.5213,"station_id":3,"station_name":"Christopher Street, Liverpool Street","ntrips":3,"trips":[{"station":"Crosswall, Tower","duration":480,"type":"inbound","distance":3295,"time":"08:07","ts":140},{"station":"Dock Street, Wapping","duration":540,"type":"inbound","distance":3662,"time":"08:20","ts":400},{"station":"Pritchard's Road, Bethnal Green","duration":600,"type":"inbound","distance":2617,"time":"08:59","ts":1180}]},{"longitude":-0.120974,"latitude":51.5301,"station_id":4,"station_name":"St. Chad's Street, King's Cross","ntrips":1,"trips":[{"station":"Brunswick Square, Bloomsbury","duration":300,"type":"outbound","distance":1747,"time":"09:04","ts":1280}]},{"longitude":-0.156876,"latitude":51.4931,"station_id":5,"station_name":"Sedding Street, Sloane Square","ntrips":5,"trips":[{"station":"The Metropolitan, Portobello","duration":1260,"type":"inbound","distance":6578,"time":"08:04","ts":80},{"station":"The Vale, Chelsea","duration":300,"type":"inbound","distance":1601,"time":"08:07","ts":140},{"station":"Borough High Street, The Borough","duration":1560,"type":"outbound","distance":6347,"time":"08:27","ts":540},{"station":"The Vale, Chelsea","duration":360,"type":"outbound","distance":1861,"time":"08:30","ts":600},{"station":"Denyer Street, Knightsbridge","duration":240,"type":"inbound","distance":872,"time":"09:20","ts":1600}]},{"longitude":-0.144229,"latitude":51.5181,"station_id":6,"station_name":"Broadcasting House, Marylebone","ntrips":1,"trips":[{"station":"Edgware Road Station, Marylebone","duration":780,"type":"outbound","distance":3518,"time":"08:24","ts":480}]},{"longitude":-0.168074,"latitude":51.5343,"station_id":7,"station_name":"Charlbert Street, St. John's Wood","ntrips":0,"trips":[]},{"longitude":-0.183486,"latitude":51.529857,"station_id":8,"station_name":"Maida Vale, Maida Vale","ntrips":5,"trips":[{"station":"Beaumont Street, Marylebone","duration":660,"type":"outbound","distance":3054,"time":"08:23","ts":459.99999999999994},{"station":"Bramham Gardens, Earl's Court","duration":960,"type":"outbound","distance":9228,"time":"08:28","ts":560},{"station":"Bolsover Street, Fitzrovia","duration":900,"type":"inbound","distance":3421,"time":"08:58","ts":1160},{"station":"Everington Street, Fulham","duration":1560,"type":"outbound","distance":9741,"time":"09:02","ts":1240},{"station":"Bell Street , Marylebone","duration":480,"type":"inbound","distance":1875,"time":"09:15","ts":1500}]},{"longitude":-0.0964408,"latitude":51.5074,"station_id":9,"station_name":"New Globe Walk, Bankside","ntrips":1,"trips":[{"station":"Concert Hall Approach 2, South Bank","duration":720,"type":"inbound","distance":1923,"time":"09:12","ts":1440}]},{"longitude":-0.0927542,"latitude":51.506,"station_id":10,"station_name":"Park Street, Bankside","ntrips":1,"trips":[{"station":"Islington Green, Angel","duration":840,"type":"inbound","distance":4960,"time":"08:55","ts":1100}]},{"longitude":-0.122502,"latitude":51.524,"station_id":11,"station_name":"Brunswick Square, Bloomsbury","ntrips":2,"trips":[{"station":"St. Chad's Street, King's Cross","duration":300,"type":"inbound","distance":1747,"time":"08:59","ts":1180},{"station":"Northington Street , Holborn","duration":240,"type":"inbound","distance":1202,"time":"09:04","ts":1280}]},{"longitude":-0.130432,"latitude":51.5217,"station_id":12,"station_name":"Malet Street, Bloomsbury","ntrips":1,"trips":[{"station":"Tavistock Place, Bloomsbury","duration":240,"type":"outbound","distance":855,"time":"09:20","ts":1600}]},{"longitude":-0.13604,"latitude":51.5199,"station_id":13,"station_name":"Scala Street, Fitzrovia","ntrips":2,"trips":[{"station":"West Smithfield Rotunda, Farringdon","duration":780,"type":"outbound","distance":3705,"time":"09:03","ts":1260},{"station":"George Place Mews, Marylebone","duration":540,"type":"inbound","distance":1893,"time":"09:03","ts":1260}]},{"longitude":-0.123617,"latitude":51.5299,"station_id":14,"station_name":"Belgrove Street, King's Cross","ntrips":5,"trips":[{"station":"Guilford Street , Bloomsbury","duration":300,"type":"outbound","distance":1885,"time":"08:16","ts":320},{"station":"Foley Street, Fitzrovia","duration":720,"type":"outbound","distance":2425,"time":"08:26","ts":520},{"station":"Tysoe Street, Clerkenwell","duration":420,"type":"inbound","distance":1629,"time":"09:04","ts":1280},{"station":"Albert Embankment, Vauxhall","duration":1200,"type":"outbound","distance":5728,"time":"09:13","ts":1460},{"station":"Red Lion Street, Holborn","duration":420,"type":"outbound","distance":2347,"time":"09:16","ts":1520}]},{"longitude":-0.127854,"latitude":51.5177,"station_id":15,"station_name":"Great Russell Street, Bloomsbury","ntrips":2,"trips":[{"station":"Finsbury Square , Moorgate","duration":720,"type":"inbound","distance":4279,"time":"08:07","ts":140},{"station":"Great Tower Street, Monument","duration":720,"type":"outbound","distance":5169,"time":"08:20","ts":400}]},{"longitude":-0.125979,"latitude":51.5264,"station_id":16,"station_name":"Cartwright Gardens, Bloomsbury","ntrips":0,"trips":[]},{"longitude":-0.109006,"latitude":51.5217,"station_id":17,"station_name":"Hatton Wall, Holborn","ntrips":0,"trips":[]},{"longitude":-0.12222,"latitude":51.5148,"station_id":18,"station_name":"Drury Lane, Covent Garden","ntrips":1,"trips":[{"station":"Duke Street Hill, London Bridge","duration":780,"type":"outbound","distance":4204,"time":"09:01","ts":1220}]},{"longitude":-0.131161,"latitude":51.5251,"station_id":19,"station_name":"Taviton Street, Bloomsbury","ntrips":0,"trips":[]},{"longitude":-0.135273,"latitude":51.5277,"station_id":20,"station_name":"Drummond Street, Euston","ntrips":0,"trips":[]},{"longitude":-0.138846,"latitude":51.5301,"station_id":21,"station_name":"Hampstead Road (Cartmel), Euston","ntrips":0,"trips":[]},{"longitude":-0.114079,"latitude":51.5223,"station_id":22,"station_name":"Northington Street, Holborn","ntrips":3,"trips":[{"station":"Christian Street, Whitechapel","duration":1200,"type":"inbound","distance":4577,"time":"08:01","ts":20},{"station":"Brunswick Square, Bloomsbury","duration":240,"type":"outbound","distance":1202,"time":"09:08","ts":1360},{"station":"Barbican Centre, Barbican","duration":660,"type":"outbound","distance":4298,"time":"09:28","ts":1760}]},{"longitude":-0.119123,"latitude":51.5194,"station_id":23,"station_name":"Red Lion Square, Holborn","ntrips":0,"trips":[]},{"longitude":-0.124678,"latitude":51.5191,"station_id":24,"station_name":"British Museum, Bloomsbury","ntrips":1,"trips":[{"station":"Eversholt Street , Camden Town","duration":540,"type":"inbound","distance":2102,"time":"08:12","ts":240}]},{"longitude":-0.13225,"latitude":51.5288,"station_id":25,"station_name":"Doric Way, Somers Town","ntrips":1,"trips":[{"station":"Wren Street, Holborn","duration":420,"type":"outbound","distance":1755,"time":"08:26","ts":520}]},{"longitude":-0.118295,"latitude":51.5273,"station_id":26,"station_name":"Ampton Street, Clerkenwell","ntrips":0,"trips":[]},{"longitude":-0.107928,"latitude":51.5138,"station_id":27,"station_name":"Bouverie Street, Temple","ntrips":1,"trips":[{"station":"Wormwood Street, Liverpool Street","duration":540,"type":"inbound","distance":2707,"time":"08:02","ts":40}]},{"longitude":-0.143614,"latitude":51.5235,"station_id":28,"station_name":"Bolsover Street, Fitzrovia","ntrips":3,"trips":[{"station":"Clifton Road, Maida Vale","duration":720,"type":"inbound","distance":3616,"time":"09:00","ts":1200},{"station":"Hinde Street, Marylebone","duration":300,"type":"outbound","distance":1313,"time":"09:11","ts":1420},{"station":"Maida Vale, Maida Vale","duration":900,"type":"outbound","distance":3421,"time":"09:13","ts":1460}]},{"longitude":-0.193487,"latitude":51.5137,"station_id":29,"station_name":"Hereford Road, Bayswater","ntrips":2,"trips":[{"station":"Queen's Circus, Battersea Park","duration":1440,"type":"inbound","distance":7686,"time":"08:02","ts":40},{"station":"Queen Street 2, Bank","duration":2220,"type":"outbound","distance":8614,"time":"09:21","ts":1620}]},{"longitude":-0.0934216,"latitude":51.5292,"station_id":30,"station_name":"Windsor Terrace, Hoxton","ntrips":3,"trips":[{"station":"Farringdon Street, Holborn","duration":480,"type":"outbound","distance":2784,"time":"09:04","ts":1280},{"station":"Queensbridge Road, Haggerston","duration":540,"type":"outbound","distance":2386,"time":"09:07","ts":1340},{"station":"Duke Street Hill, London Bridge","duration":840,"type":"outbound","distance":5347,"time":"09:27","ts":1740}]},{"longitude":-0.0833533,"latitude":51.5295,"station_id":31,"station_name":"Fanshaw Street, Hoxton","ntrips":0,"trips":[]},{"longitude":-0.0844393,"latitude":51.5247,"station_id":32,"station_name":"Leonard Circus, Shoreditch","ntrips":3,"trips":[{"station":"Pindar Street, Liverpool Street","duration":180,"type":"inbound","distance":1226,"time":"08:18","ts":360},{"station":"Mostyn Grove, Bow","duration":2040,"type":"inbound","distance":4826,"time":"08:55","ts":1100},{"station":"Dunston Road , Haggerston","duration":360,"type":"inbound","distance":2179,"time":"09:14","ts":1480}]},{"longitude":-0.0678275,"latitude":51.5168,"station_id":33,"station_name":"Central House, Aldgate","ntrips":2,"trips":[{"station":"Watney Market, Stepney","duration":360,"type":"inbound","distance":1041,"time":"08:57","ts":1140},{"station":"Sardinia Street, Holborn","duration":900,"type":"inbound","distance":4602,"time":"09:05","ts":1300}]},{"longitude":-0.129387,"latitude":51.5341,"station_id":34,"station_name":"Pancras Road, King's Cross","ntrips":0,"trips":[]},{"longitude":-0.184981,"latitude":51.5017,"station_id":36,"station_name":"De Vere Gardens, Kensington","ntrips":2,"trips":[{"station":"Hyde Park Corner, Hyde Park","duration":1140,"type":"inbound","distance":2274,"time":"08:56","ts":1120},{"station":"Geraldine Street, Elephant & Castle","duration":1680,"type":"inbound","distance":6689,"time":"09:02","ts":1240}]},{"longitude":-0.192369,"latitude":51.4916,"station_id":37,"station_name":"Penywern Road, Earl's Court","ntrips":2,"trips":[{"station":"Sloane Avenue, Knightsbridge","duration":540,"type":"outbound","distance":3639,"time":"08:25","ts":500},{"station":"Exhibition Road, Knightsbridge","duration":420,"type":"inbound","distance":2161,"time":"09:07","ts":1340}]},{"longitude":-0.197246,"latitude":51.4974,"station_id":38,"station_name":"Abingdon Villas, Kensington","ntrips":5,"trips":[{"station":"Smugglers Way, Wandsworth","duration":1320,"type":"inbound","distance":5583,"time":"08:01","ts":20},{"station":"Kensington Olympia Station, Olympia","duration":360,"type":"inbound","distance":1153,"time":"08:14","ts":280},{"station":"Wright's Lane, Kensington","duration":120,"type":"inbound","distance":595,"time":"09:13","ts":1460},{"station":"Shepherd's Bush Road North, Shepherd's Bush","duration":540,"type":"inbound","distance":2662,"time":"09:18","ts":1560},{"station":"Wright's Lane, Kensington","duration":180,"type":"outbound","distance":595,"time":"09:19","ts":1580}]},{"longitude":-0.0781309,"latitude":51.5264,"station_id":39,"station_name":"Shoreditch High Street, Shoreditch","ntrips":1,"trips":[{"station":"Brushfield Street, Liverpool Street","duration":360,"type":"inbound","distance":1235,"time":"09:00","ts":1200}]},{"longitude":-0.0755789,"latitude":51.5213,"station_id":40,"station_name":"Commercial Street, Shoreditch","ntrips":1,"trips":[{"station":"Belford House, Haggerston","duration":540,"type":"inbound","distance":2096,"time":"09:00","ts":1200}]},{"longitude":-0.0839112,"latitude":51.52,"station_id":41,"station_name":"Pindar Street, Liverpool Street","ntrips":4,"trips":[{"station":"Pritchard's Road, Bethnal Green","duration":600,"type":"inbound","distance":2570,"time":"08:12","ts":240},{"station":"Baldwin Street, St. Luke's","duration":300,"type":"outbound","distance":1069,"time":"08:20","ts":400},{"station":"Leonard Circus , Shoreditch","duration":180,"type":"outbound","distance":1226,"time":"08:21","ts":420},{"station":"Clifton Street, Shoreditch","duration":120,"type":"outbound","distance":857,"time":"09:00","ts":1200}]},{"longitude":-0.0939038,"latitude":51.531,"station_id":42,"station_name":"Wenlock Road, Hoxton","ntrips":1,"trips":[{"station":"Moorfields, Moorgate","duration":420,"type":"outbound","distance":3335,"time":"09:28","ts":1760}]},{"longitude":-0.157184,"latitude":51.5203,"station_id":43,"station_name":"Crawford Street, Marylebone","ntrips":2,"trips":[{"station":"Clifford Street, Mayfair","duration":300,"type":"outbound","distance":1917,"time":"08:20","ts":400},{"station":"Columbia Road, Shoreditch","duration":1800,"type":"inbound","distance":7538,"time":"08:38","ts":760}]},{"longitude":-0.144165,"latitude":51.5107,"station_id":44,"station_name":"Bruton Street, Mayfair","ntrips":3,"trips":[{"station":"Battersea Power Station, Battersea Park","duration":1080,"type":"inbound","distance":4889,"time":"08:46","ts":919.9999999999999},{"station":"Cleveland Gardens, Bayswater","duration":660,"type":"inbound","distance":3409,"time":"08:51","ts":1020},{"station":"Drayton Gardens, West Chelsea","duration":960,"type":"inbound","distance":4372,"time":"08:51","ts":1020}]},{"longitude":-0.162298,"latitude":51.5225,"station_id":45,"station_name":"Boston Place, Marylebone","ntrips":1,"trips":[{"station":"Montpelier Street, Knightsbridge","duration":900,"type":"outbound","distance":4355,"time":"09:15","ts":1500}]},{"longitude":-0.06691,"latitude":51.5071,"station_id":46,"station_name":"Nesham Street, Wapping","ntrips":1,"trips":[{"station":"Brushfield Street, Liverpool Street","duration":540,"type":"outbound","distance":3538,"time":"08:09","ts":180}]},{"longitude":-0.183846,"latitude":51.5233,"station_id":47,"station_name":"Warwick Avenue Station, Maida Vale","ntrips":1,"trips":[{"station":"Clifton Road, Maida Vale","duration":120,"type":"outbound","distance":501,"time":"09:24","ts":1680}]},{"longitude":-0.0991414,"latitude":51.5125,"station_id":48,"station_name":"Godliman Street, St. Paul's","ntrips":1,"trips":[{"station":"Smith Square, Westminster","duration":1020,"type":"outbound","distance":4062,"time":"08:27","ts":540}]},{"longitude":-0.145904,"latitude":51.5071,"station_id":49,"station_name":"Curzon Street, Mayfair","ntrips":1,"trips":[{"station":"Phillimore Gardens, Kensington","duration":1140,"type":"inbound","distance":4612,"time":"08:43","ts":860}]},{"longitude":-0.0874594,"latitude":51.5287,"station_id":50,"station_name":"East Road, Hoxton","ntrips":0,"trips":[]},{"longitude":-0.104298,"latitude":51.5267,"station_id":51,"station_name":"Finsbury Library, Finsbury","ntrips":1,"trips":[{"station":"Stamford Street, South Bank","duration":720,"type":"outbound","distance":3245,"time":"09:23","ts":1660}]},{"longitude":-0.0949349,"latitude":51.523,"station_id":52,"station_name":"Roscoe Street, St. Luke's","ntrips":2,"trips":[{"station":"Cheapside, Bank","duration":480,"type":"outbound","distance":2436,"time":"08:18","ts":360},{"station":"Great Tower Street, Monument","duration":600,"type":"outbound","distance":4559,"time":"08:26","ts":520}]},{"longitude":-0.143495,"latitude":51.51,"station_id":53,"station_name":"Grafton Street, Mayfair","ntrips":0,"trips":[]},{"longitude":-0.0944751,"latitude":51.5217,"station_id":54,"station_name":"Golden Lane, Barbican","ntrips":1,"trips":[{"station":"Farringdon Street, Holborn","duration":240,"type":"outbound","distance":1593,"time":"08:16","ts":320}]},{"longitude":-0.0866855,"latitude":51.5171,"station_id":55,"station_name":"Finsbury Circus, Liverpool Street","ntrips":5,"trips":[{"station":"Chadwell Street, Angel","duration":720,"type":"inbound","distance":2990,"time":"08:03","ts":60},{"station":"Pritchard's Road, Bethnal Green","duration":780,"type":"inbound","distance":3282,"time":"08:07","ts":140},{"station":"Cheapside, Bank","duration":300,"type":"outbound","distance":2146,"time":"08:16","ts":320},{"station":"Newgate Street , St. Paul's","duration":300,"type":"outbound","distance":1067,"time":"08:25","ts":500},{"station":"High Holborn , Covent Garden","duration":840,"type":"outbound","distance":3616,"time":"09:06","ts":1320}]},{"longitude":-0.154701,"latitude":51.5206,"station_id":56,"station_name":"Paddington Street, Marylebone","ntrips":2,"trips":[{"station":"Warren Street Station, Euston","duration":480,"type":"outbound","distance":2196,"time":"08:23","ts":459.99999999999994},{"station":"Baldwin Street, St. Luke's","duration":1500,"type":"outbound","distance":5323,"time":"09:11","ts":1420}]},{"longitude":-0.120203,"latitude":51.5233,"station_id":57,"station_name":"Guilford Street, Bloomsbury","ntrips":9,"trips":[{"station":"Tanner Street, Bermondsey","duration":1140,"type":"inbound","distance":5163,"time":"08:02","ts":40},{"station":"Bonner Gate, Victoria Park","duration":1500,"type":"inbound","distance":25899,"time":"08:05","ts":100},{"station":"Belgrove Street , King's Cross","duration":300,"type":"inbound","distance":1885,"time":"08:11","ts":220},{"station":"Macclesfield Rd, St Lukes","duration":540,"type":"inbound","distance":2717,"time":"08:17","ts":340},{"station":"Snow Hill, Farringdon","duration":480,"type":"inbound","distance":1772,"time":"08:22","ts":440},{"station":"Walnut Tree Walk, Vauxhall","duration":1140,"type":"inbound","distance":4515,"time":"08:41","ts":820},{"station":"William IV Street, Strand","duration":660,"type":"inbound","distance":2824,"time":"08:58","ts":1160},{"station":"Finnis Street, Bethnal Green","duration":1440,"type":"outbound","distance":5424,"time":"09:12","ts":1440},{"station":"St Martins Close, Camden Town","duration":600,"type":"inbound","distance":3397,"time":"09:20","ts":1600}]},{"longitude":-0.0792481,"latitude":51.5245,"station_id":58,"station_name":"New Inn Yard, Shoreditch","ntrips":2,"trips":[{"station":"Crinan Street, King's Cross","duration":780,"type":"inbound","distance":4037,"time":"08:10","ts":200},{"station":"Regent's Row , Haggerston ","duration":540,"type":"inbound","distance":3175,"time":"08:55","ts":1100}]},{"longitude":-0.114329,"latitude":51.5318,"station_id":59,"station_name":"Rodney Street, Angel","ntrips":0,"trips":[]},{"longitude":-0.172191,"latitude":51.5264,"station_id":60,"station_name":"Lisson Grove, St. John's Wood","ntrips":1,"trips":[{"station":"Grove End Road, St. John's Wood","duration":180,"type":"inbound","distance":608,"time":"09:13","ts":1460}]},{"longitude":-0.0894469,"latitude":51.4974,"station_id":61,"station_name":"Great Dover Street, The Borough","ntrips":3,"trips":[{"station":"Swan Street, The Borough","duration":120,"type":"outbound","distance":985,"time":"08:04","ts":80},{"station":"Kingsway Southbound, Strand","duration":720,"type":"outbound","distance":4382,"time":"08:29","ts":580},{"station":"Houghton Street, Strand","duration":1020,"type":"outbound","distance":3639,"time":"09:26","ts":1720}]},{"longitude":-0.106324,"latitude":51.4908,"station_id":62,"station_name":"Cotton Garden Estate, Kennington","ntrips":1,"trips":[{"station":"Kennington Lane Rail Bridge, Vauxhall","duration":300,"type":"inbound","distance":1303,"time":"08:13","ts":260}]},{"longitude":-0.0897826,"latitude":51.5309,"station_id":63,"station_name":"Murray Grove, Hoxton","ntrips":1,"trips":[{"station":"Concert Hall Approach 2, South Bank","duration":1020,"type":"outbound","distance":5710,"time":"08:25","ts":500}]},{"longitude":-0.124749,"latitude":51.5095,"station_id":64,"station_name":"William IV Street, Strand","ntrips":4,"trips":[{"station":"Regent's Row , Haggerston ","duration":1260,"type":"inbound","distance":7174,"time":"08:05","ts":100},{"station":"Warwick Road, Olympia","duration":1380,"type":"inbound","distance":6609,"time":"08:06","ts":120},{"station":"Waterloo Station 1, Waterloo","duration":480,"type":"inbound","distance":2789,"time":"08:58","ts":1160},{"station":"Guilford Street , Bloomsbury","duration":660,"type":"outbound","distance":2824,"time":"09:09","ts":1380}]},{"longitude":-0.135189,"latitude":51.5252,"station_id":65,"station_name":"Gower Place, Euston","ntrips":0,"trips":[]},{"longitude":-0.108657,"latitude":51.518,"station_id":66,"station_name":"Holborn Circus, Holborn","ntrips":2,"trips":[{"station":"Clerkenwell Green, Clerkenwell","duration":240,"type":"outbound","distance":1346,"time":"09:03","ts":1260},{"station":"Twig Folly Bridge, Mile End","duration":1200,"type":"outbound","distance":6280,"time":"09:20","ts":1600}]},{"longitude":-0.108028,"latitude":51.5188,"station_id":67,"station_name":"Hatton Garden, Holborn","ntrips":0,"trips":[]},{"longitude":-0.116688,"latitude":51.5206,"station_id":68,"station_name":"Theobald's Road, Holborn","ntrips":3,"trips":[{"station":"Dunston Road , Haggerston","duration":1260,"type":"inbound","distance":3988,"time":"09:03","ts":1260},{"station":"Carey Street, Holborn","duration":240,"type":"outbound","distance":1333,"time":"09:04","ts":1280},{"station":"Tysoe Street, Clerkenwell","duration":240,"type":"inbound","distance":890,"time":"09:25","ts":1700}]},{"longitude":-0.134408,"latitude":51.5262,"station_id":69,"station_name":"Euston Road, Euston","ntrips":1,"trips":[{"station":"Westminster Pier, Westminster","duration":780,"type":"outbound","distance":4180,"time":"09:19","ts":1580}]},{"longitude":-0.11707,"latitude":51.5314,"station_id":70,"station_name":"Calshot Street, King's Cross","ntrips":0,"trips":[]},{"longitude":-0.0988509,"latitude":51.5154,"station_id":71,"station_name":"Newgate Street, St. Paul's","ntrips":3,"trips":[{"station":"Caldwell Street, Stockwell","duration":1440,"type":"inbound","distance":6594,"time":"08:01","ts":20},{"station":"Finsbury Circus, Liverpool Street","duration":300,"type":"inbound","distance":1067,"time":"08:20","ts":400},{"station":"Sutton Street, Shadwell","duration":1140,"type":"inbound","distance":5380,"time":"08:41","ts":820}]},{"longitude":-0.10834,"latitude":51.5235,"station_id":72,"station_name":"Farringdon Lane, Clerkenwell","ntrips":0,"trips":[]},{"longitude":-0.0884862,"latitude":51.5257,"station_id":73,"station_name":"Old Street Station, St. Luke's","ntrips":1,"trips":[{"station":"Berry Street, Clerkenwell","duration":300,"type":"outbound","distance":855,"time":"09:01","ts":1220}]},{"longitude":-0.12447,"latitude":51.4859,"station_id":74,"station_name":"Vauxhall Cross, Vauxhall","ntrips":3,"trips":[{"station":"Orbel Street, Battersea","duration":780,"type":"inbound","distance":3909,"time":"08:52","ts":1040},{"station":"Lower Marsh, Waterloo","duration":540,"type":"outbound","distance":2003,"time":"09:02","ts":1240},{"station":"Smugglers Way, Wandsworth","duration":1380,"type":"inbound","distance":5813,"time":"09:06","ts":1320}]},{"longitude":-0.105481,"latitude":51.5322,"station_id":75,"station_name":"Torrens Street, Angel","ntrips":0,"trips":[]},{"longitude":-0.144084,"latitude":51.5256,"station_id":76,"station_name":"Longford Street, The Regent's Park","ntrips":0,"trips":[]},{"longitude":-0.124122,"latitude":51.5234,"station_id":77,"station_name":"Russell Square Station, Bloomsbury","ntrips":1,"trips":[{"station":"Dorset Square, Marylebone","duration":840,"type":"inbound","distance":3109,"time":"08:15","ts":300}]},{"longitude":-0.0994895,"latitude":51.5249,"station_id":78,"station_name":"Sadlers Sports Centre, Finsbury","ntrips":1,"trips":[{"station":"Clerkenwell Green, Clerkenwell","duration":120,"type":"outbound","distance":847,"time":"08:08","ts":160}]},{"longitude":-0.0971465,"latitude":51.4912,"station_id":79,"station_name":"Arundel Street, Temple","ntrips":1,"trips":[{"station":"Dickens Square, Borough","duration":660,"type":"inbound","distance":1428,"time":"08:17","ts":340}]},{"longitude":-0.102091,"latitude":51.5007,"station_id":80,"station_name":"Webber Street, Southwark","ntrips":0,"trips":[]},{"longitude":-0.141327,"latitude":51.5203,"station_id":81,"station_name":"Great Titchfield Street, Fitzrovia","ntrips":0,"trips":[]},{"longitude":-0.111257,"latitude":51.5143,"station_id":82,"station_name":"Chancery Lane, Holborn","ntrips":0,"trips":[]},{"longitude":-0.131511,"latitude":51.5096,"station_id":83,"station_name":"Panton Street, West End","ntrips":1,"trips":[{"station":"Denyer Street, Knightsbridge","duration":1140,"type":"inbound","distance":3622,"time":"08:00","ts":0}]},{"longitude":-0.111778,"latitude":51.5159,"station_id":84,"station_name":"Breams Buildings, Holborn","ntrips":1,"trips":[{"station":"Waterloo Station 1, Waterloo","duration":600,"type":"inbound","distance":2573,"time":"08:58","ts":1160}]},{"longitude":-0.0786004,"latitude":51.5006,"station_id":85,"station_name":"Tanner Street, Bermondsey","ntrips":1,"trips":[{"station":"Guilford Street , Bloomsbury","duration":1140,"type":"outbound","distance":5163,"time":"08:21","ts":420}]},{"longitude":-0.115157,"latitude":51.4895,"station_id":86,"station_name":"Sancroft Street, Vauxhall","ntrips":2,"trips":[{"station":"Kennington Lane Rail Bridge, Vauxhall","duration":180,"type":"outbound","distance":1114,"time":"08:19","ts":380},{"station":"Clifford Street, Mayfair","duration":960,"type":"outbound","distance":5000,"time":"08:30","ts":600}]},{"longitude":-0.0796846,"latitude":51.5165,"station_id":87,"station_name":"Devonshire Square, Liverpool Street","ntrips":2,"trips":[{"station":"Curlew Street, Shad Thames","duration":420,"type":"outbound","distance":2980,"time":"08:11","ts":220},{"station":"Old Montague Street, Whitechapel","duration":240,"type":"inbound","distance":1916,"time":"09:14","ts":1480}]},{"longitude":-0.132053,"latitude":51.5186,"station_id":88,"station_name":"Bayley Street, Bloomsbury","ntrips":3,"trips":[{"station":"Rampayne Street, Pimlico","duration":840,"type":"inbound","distance":5074,"time":"08:11","ts":220},{"station":"Birkenhead Street, King's Cross","duration":420,"type":"inbound","distance":3046,"time":"08:19","ts":380},{"station":"Baldwin Street, St. Luke's","duration":1080,"type":"inbound","distance":5850,"time":"08:47","ts":940.0000000000001}]},{"longitude":-0.12351,"latitude":51.5263,"station_id":89,"station_name":"Tavistock Place, Bloomsbury","ntrips":1,"trips":[{"station":"Malet Street, Bloomsbury","duration":240,"type":"inbound","distance":855,"time":"09:16","ts":1520}]},{"longitude":-0.139175,"latitude":51.533,"station_id":90,"station_name":"Harrington Square 1, Camden Town","ntrips":0,"trips":[]},{"longitude":-0.111015,"latitude":51.4937,"station_id":91,"station_name":"Walnut Tree Walk, Vauxhall","ntrips":1,"trips":[{"station":"Guilford Street , Bloomsbury","duration":1140,"type":"outbound","distance":4515,"time":"09:00","ts":1200}]},{"longitude":-0.100441,"latitude":51.4989,"station_id":92,"station_name":"Borough Road, Elephant & Castle","ntrips":0,"trips":[]},{"longitude":-0.109025,"latitude":51.5344,"station_id":93,"station_name":"Cloudesley Road, Angel","ntrips":1,"trips":[{"station":"Farringdon Street, Holborn","duration":540,"type":"outbound","distance":2451,"time":"08:09","ts":180}]},{"longitude":-0.0858145,"latitude":51.4951,"station_id":94,"station_name":"Bricklayers Arms, Borough","ntrips":2,"trips":[{"station":"Lavington Street, Bankside","duration":540,"type":"outbound","distance":1603,"time":"08:11","ts":220},{"station":"Queen Street 1, Bank","duration":540,"type":"outbound","distance":3449,"time":"09:23","ts":1660}]},{"longitude":-0.0973402,"latitude":51.5208,"station_id":95,"station_name":"Aldersgate Street, Barbican","ntrips":0,"trips":[]},{"longitude":-0.0785054,"latitude":51.531,"station_id":96,"station_name":"Falkirk Street, Hoxton","ntrips":1,"trips":[{"station":"Mostyn Grove, Bow","duration":1440,"type":"inbound","distance":4934,"time":"09:00","ts":1200}]},{"longitude":-0.183835,"latitude":51.4979,"station_id":97,"station_name":"Gloucester Road (North), Kensington","ntrips":2,"trips":[{"station":"Waterloo Place, St. James's","duration":1020,"type":"outbound","distance":4590,"time":"08:23","ts":459.99999999999994},{"station":"Gloucester Road (North), Kensington","duration":1800,"type":"outbound","distance":0,"time":"09:19","ts":1580}]},{"longitude":-0.138231,"latitude":51.5255,"station_id":98,"station_name":"Hampstead Road, Euston","ntrips":1,"trips":[{"station":"Parkway, Camden Town","duration":420,"type":"inbound","distance":2201,"time":"08:04","ts":80}]},{"longitude":-0.158264,"latitude":51.5146,"station_id":99,"station_name":"Old Quebec Street, Marylebone","ntrips":2,"trips":[{"station":"Eccleston Place, Victoria","duration":780,"type":"inbound","distance":3818,"time":"08:14","ts":280},{"station":"Queen's Gate, Kensington Gardens","duration":600,"type":"outbound","distance":3530,"time":"09:26","ts":1720}]},{"longitude":-0.122807,"latitude":51.4904,"station_id":100,"station_name":"Albert Embankment, Vauxhall","ntrips":4,"trips":[{"station":"Normandy Road, Stockwell","duration":600,"type":"inbound","distance":3525,"time":"08:08","ts":160},{"station":"Belgrove Street , King's Cross","duration":1200,"type":"inbound","distance":5728,"time":"08:53","ts":1060},{"station":"Liverpool Road (N1 Centre), Angel","duration":1800,"type":"inbound","distance":5961,"time":"08:54","ts":1080},{"station":"Liverpool Road (N1 Centre), Angel","duration":1800,"type":"inbound","distance":5961,"time":"08:54","ts":1080}]},{"longitude":-0.0929401,"latitude":51.5116,"station_id":101,"station_name":"Queen Street 1, Bank","ntrips":4,"trips":[{"station":"Rampayne Street, Pimlico","duration":1080,"type":"inbound","distance":5142,"time":"08:08","ts":160},{"station":"New Road 1 , Whitechapel","duration":780,"type":"outbound","distance":4353,"time":"08:16","ts":320},{"station":"Hollybush Gardens, Bethnal Green","duration":720,"type":"inbound","distance":6089,"time":"09:09","ts":1380},{"station":"Bricklayers Arms, Borough","duration":540,"type":"inbound","distance":3449,"time":"09:14","ts":1480}]},{"longitude":-0.0767934,"latitude":51.5134,"station_id":102,"station_name":"Jewry Street, Aldgate","ntrips":3,"trips":[{"station":"Clinton Road, Mile End","duration":1140,"type":"outbound","distance":5196,"time":"08:26","ts":520},{"station":"Westferry DLR, Limehouse","duration":960,"type":"inbound","distance":4430,"time":"08:50","ts":1000},{"station":"Elizabeth Bridge, Victoria","duration":1620,"type":"inbound","distance":7863,"time":"08:54","ts":1080}]},{"longitude":-0.192539,"latitude":51.5047,"station_id":103,"station_name":"Vicarage Gate, Kensington","ntrips":3,"trips":[{"station":"Waterloo Station 1, Waterloo","duration":1800,"type":"inbound","distance":6660,"time":"08:33","ts":660},{"station":"Maclise Road, Olympia","duration":600,"type":"inbound","distance":2495,"time":"09:02","ts":1240},{"station":"Farm Street, Mayfair","duration":1020,"type":"outbound","distance":4414,"time":"09:24","ts":1680}]},{"longitude":-0.0771213,"latitude":51.5116,"station_id":104,"station_name":"Crosswall, Tower","ntrips":3,"trips":[{"station":"Christopher Street, Liverpool Street","duration":480,"type":"outbound","distance":3295,"time":"08:15","ts":300},{"station":"Lee Valley VeloPark, Queen Elizabeth Olympic Park","duration":1320,"type":"inbound","distance":13270,"time":"08:44","ts":880},{"station":"Christian Street, Whitechapel","duration":240,"type":"inbound","distance":1258,"time":"09:06","ts":1320}]},{"longitude":-0.190241,"latitude":51.5155,"station_id":105,"station_name":"Westbourne Grove, Bayswater","ntrips":2,"trips":[{"station":"Ravenscourt Park Station, Hammersmith","duration":960,"type":"outbound","distance":5235,"time":"08:18","ts":360},{"station":"Woodstock Street, Mayfair","duration":840,"type":"outbound","distance":3903,"time":"09:27","ts":1740}]},{"longitude":-0.147302,"latitude":51.5141,"station_id":106,"station_name":"Woodstock Street, Mayfair","ntrips":1,"trips":[{"station":"Westbourne Grove, Bayswater","duration":840,"type":"inbound","distance":3903,"time":"09:13","ts":1460}]},{"longitude":-0.0963176,"latitude":51.526,"station_id":107,"station_name":"Finsbury Leisure Centre, St. Luke's","ntrips":0,"trips":[]},{"longitude":-0.132102,"latitude":51.4981,"station_id":108,"station_name":"Abbey Orchard Street, Westminster","ntrips":3,"trips":[{"station":"Turquoise Island, Notting Hill","duration":1680,"type":"inbound","distance":6739,"time":"08:36","ts":720},{"station":"Emperor's Gate, South Kensington","duration":1140,"type":"inbound","distance":4689,"time":"09:03","ts":1260},{"station":"Philpot Street, Whitechapel","duration":1620,"type":"outbound","distance":6630,"time":"09:07","ts":1340}]},{"longitude":-0.132329,"latitude":51.5156,"station_id":109,"station_name":"Soho Square, Soho","ntrips":3,"trips":[{"station":"Wellington Row, Bethnal Green","duration":1680,"type":"inbound","distance":5534,"time":"08:43","ts":860},{"station":"Wapping Lane, Wapping","duration":2160,"type":"inbound","distance":7171,"time":"08:52","ts":1040},{"station":"Hoxton Street, Hoxton","duration":1440,"type":"inbound","distance":5027,"time":"08:56","ts":1120}]},{"longitude":-0.172529,"latitude":51.533,"station_id":110,"station_name":"Wellington Road, St. John's Wood","ntrips":0,"trips":[]},{"longitude":-0.157276,"latitude":51.51,"station_id":111,"station_name":"Park Lane, Hyde Park","ntrips":0,"trips":[]},{"longitude":-0.10527,"latitude":51.5158,"station_id":112,"station_name":"Stonecutter Street, Holborn","ntrips":1,"trips":[{"station":"Waterloo Station 2, Waterloo","duration":540,"type":"inbound","distance":2595,"time":"08:20","ts":400}]},{"longitude":-0.183289,"latitude":51.4965,"station_id":113,"station_name":"Gloucester Road (Central), South Kensington","ntrips":0,"trips":[]},{"longitude":-0.158964,"latitude":51.5245,"station_id":114,"station_name":"Park Road (Baker Street), The Regent's Park","ntrips":0,"trips":[]},{"longitude":-0.0735377,"latitude":51.5142,"station_id":115,"station_name":"Braham Street, Aldgate","ntrips":2,"trips":[{"station":"Belvedere Road 1, South Bank","duration":1260,"type":"inbound","distance":4127,"time":"09:05","ts":1300},{"station":"Flamborough Street, Limehouse","duration":600,"type":"inbound","distance":3885,"time":"09:11","ts":1420}]},{"longitude":-0.141424,"latitude":51.5145,"station_id":116,"station_name":"Little Argyll Street, West End","ntrips":1,"trips":[{"station":"South Audley Street, Mayfair","duration":420,"type":"inbound","distance":1493,"time":"08:17","ts":340}]},{"longitude":-0.114934,"latitude":51.4929,"station_id":117,"station_name":"Lollard Street, Vauxhall","ntrips":1,"trips":[{"station":"Horseferry Road, Westminster","duration":300,"type":"outbound","distance":1210,"time":"08:14","ts":280}]},{"longitude":-0.135478,"latitude":51.4958,"station_id":118,"station_name":"Rochester Row, Westminster","ntrips":1,"trips":[{"station":"Serpentine Car Park, Hyde Park","duration":660,"type":"inbound","distance":4122,"time":"09:06","ts":1320}]},{"longitude":-0.0908478,"latitude":51.5259,"station_id":119,"station_name":"Bath Street, St. Luke's","ntrips":2,"trips":[{"station":"Waterloo Station 1, Waterloo","duration":720,"type":"inbound","distance":4583,"time":"08:09","ts":180},{"station":"Bath Street, St. Luke's","duration":2400,"type":"outbound","distance":0,"time":"09:16","ts":1520}]},{"longitude":-0.0930808,"latitude":51.5157,"station_id":120,"station_name":"The Guildhall, Guildhall","ntrips":1,"trips":[{"station":"Clarges Street, Mayfair","duration":1260,"type":"outbound","distance":5923,"time":"08:29","ts":580}]},{"longitude":-0.156167,"latitude":51.5189,"station_id":121,"station_name":"Baker Street, Marylebone","ntrips":0,"trips":[]},{"longitude":-0.0788698,"latitude":51.5211,"station_id":122,"station_name":"Norton Folgate, Liverpool Street","ntrips":4,"trips":[{"station":"Queen Street 2, Bank","duration":480,"type":"inbound","distance":5710,"time":"08:18","ts":360},{"station":"New Road 1 , Whitechapel","duration":780,"type":"outbound","distance":2221,"time":"08:22","ts":440},{"station":"Snowsfields, London Bridge","duration":720,"type":"inbound","distance":3457,"time":"09:01","ts":1220},{"station":"Pitfield Street North,Hoxton","duration":540,"type":"inbound","distance":2974,"time":"09:20","ts":1600}]},{"longitude":-0.104725,"latitude":51.5284,"station_id":123,"station_name":"St. John Street, Finsbury","ntrips":0,"trips":[]},{"longitude":-0.150905,"latitude":51.4965,"station_id":124,"station_name":"Eaton Square, Belgravia","ntrips":1,"trips":[{"station":"Bayswater Road, Hyde Park","duration":720,"type":"inbound","distance":3566,"time":"08:02","ts":40}]},{"longitude":-0.0945243,"latitude":51.5007,"station_id":125,"station_name":"Borough High Street, The Borough","ntrips":5,"trips":[{"station":"Sedding Street, Sloane Square","duration":1560,"type":"inbound","distance":6347,"time":"08:01","ts":20},{"station":"Normandy Road, Stockwell","duration":900,"type":"inbound","distance":4044,"time":"08:04","ts":80},{"station":"Queen's Circus, Battersea Park","duration":1260,"type":"inbound","distance":5166,"time":"08:41","ts":820},{"station":"Doddington Grove, Kennington","duration":600,"type":"inbound","distance":1988,"time":"08:59","ts":1180},{"station":"Museum of London, Barbican","duration":660,"type":"outbound","distance":3466,"time":"09:26","ts":1720}]},{"longitude":-0.0964969,"latitude":51.5178,"station_id":126,"station_name":"Museum of London, Barbican","ntrips":2,"trips":[{"station":"Graham Street, Angel","duration":420,"type":"inbound","distance":2083,"time":"08:22","ts":440},{"station":"Borough High Street, The Borough","duration":660,"type":"inbound","distance":3466,"time":"09:15","ts":1500}]},{"longitude":-0.0938854,"latitude":51.517,"station_id":127,"station_name":"Wood Street, Guildhall","ntrips":0,"trips":[]},{"longitude":-0.185297,"latitude":51.4954,"station_id":128,"station_name":"Emperor's Gate, South Kensington","ntrips":3,"trips":[{"station":"Bank of England Museum, Bank","duration":1740,"type":"outbound","distance":9705,"time":"09:15","ts":1500},{"station":"Limerston Street, West Chelsea","duration":360,"type":"outbound","distance":1616,"time":"09:21","ts":1620},{"station":"Abbey Orchard Street, Westminster","duration":1140,"type":"outbound","distance":4689,"time":"09:22","ts":1640}]},{"longitude":-0.137044,"latitude":51.5119,"station_id":129,"station_name":"Golden Square, Soho","ntrips":2,"trips":[{"station":"Gloucester Street, Pimlico","duration":840,"type":"inbound","distance":3522,"time":"08:09","ts":180},{"station":"Hinde Street, Marylebone","duration":420,"type":"outbound","distance":2031,"time":"09:23","ts":1660}]},{"longitude":-0.0754595,"latitude":51.5095,"station_id":130,"station_name":"Tower Gardens, Tower","ntrips":0,"trips":[]},{"longitude":-0.136793,"latitude":51.533,"station_id":131,"station_name":"Eversholt Street, Camden Town","ntrips":1,"trips":[{"station":"British Museum, Bloomsbury","duration":540,"type":"outbound","distance":2102,"time":"08:21","ts":420}]},{"longitude":-0.0747549,"latitude":51.5236,"station_id":132,"station_name":"Bethnal Green Road, Shoreditch","ntrips":3,"trips":[{"station":"Gunmakers Lane, Old Ford","duration":780,"type":"inbound","distance":3430,"time":"08:16","ts":320},{"station":"Mostyn Grove, Bow","duration":960,"type":"inbound","distance":4002,"time":"09:06","ts":1320},{"station":"Temple Gardens, Temple","duration":1140,"type":"outbound","distance":4724,"time":"09:25","ts":1700}]},{"longitude":-0.191462,"latitude":51.5014,"station_id":133,"station_name":"Derry Street, Kensington","ntrips":0,"trips":[]},{"longitude":-0.06797,"latitude":51.5049,"station_id":134,"station_name":"Wapping High Street, Wapping","ntrips":1,"trips":[{"station":"Hermitage Court, Wapping","duration":420,"type":"inbound","distance":429,"time":"09:07","ts":1340}]},{"longitude":-0.104709,"latitude":51.5233,"station_id":135,"station_name":"Clerkenwell Green, Clerkenwell","ntrips":6,"trips":[{"station":"Sadlers Sports Centre, Finsbury","duration":120,"type":"inbound","distance":847,"time":"08:06","ts":120},{"station":"Howland Street, Fitzrovia","duration":720,"type":"inbound","distance":3725,"time":"08:11","ts":220},{"station":"Chelsea Bridge, Pimlico","duration":1320,"type":"inbound","distance":7312,"time":"08:52","ts":1040},{"station":"Holborn Circus, Holborn","duration":240,"type":"inbound","distance":1346,"time":"08:59","ts":1180},{"station":"Shoreditch Park, Hoxton","duration":480,"type":"outbound","distance":2274,"time":"09:27","ts":1740},{"station":"Wellington Row, Bethnal Green","duration":720,"type":"outbound","distance":2987,"time":"09:30","ts":1800}]},{"longitude":-0.0974417,"latitude":51.512,"station_id":136,"station_name":"Queen Victoria Street, St. Paul's","ntrips":2,"trips":[{"station":"West Smithfield Rotunda, Farringdon","duration":240,"type":"inbound","distance":1781,"time":"08:14","ts":280},{"station":"Waterloo Station 2, Waterloo","duration":1380,"type":"inbound","distance":2628,"time":"08:58","ts":1160}]},{"longitude":-0.157437,"latitude":51.5123,"station_id":138,"station_name":"Green Street, Mayfair","ntrips":2,"trips":[{"station":"Serpentine Car Park, Hyde Park","duration":600,"type":"inbound","distance":2321,"time":"08:03","ts":60},{"station":"Paddington Green, Paddington","duration":300,"type":"inbound","distance":1659,"time":"08:18","ts":360}]},{"longitude":-0.117975,"latitude":51.4949,"station_id":139,"station_name":"Lambeth Road, Vauxhall","ntrips":1,"trips":[{"station":"Kennington Cross, Kennington","duration":480,"type":"outbound","distance":1347,"time":"09:00","ts":1200}]},{"longitude":-0.0856342,"latitude":51.521,"station_id":140,"station_name":"Finsbury Square, Moorgate","ntrips":1,"trips":[{"station":"Great Russell Street, Bloomsbury","duration":720,"type":"outbound","distance":4279,"time":"08:19","ts":380}]},{"longitude":-0.147204,"latitude":51.5153,"station_id":141,"station_name":"Chapel Place, Marylebone","ntrips":0,"trips":[]},{"longitude":-0.198287,"latitude":51.4937,"station_id":142,"station_name":"West Cromwell Road, Earl's Court","ntrips":1,"trips":[{"station":"Bramham Gardens, Earl's Court","duration":300,"type":"outbound","distance":850,"time":"09:10","ts":1400}]},{"longitude":-0.161204,"latitude":51.4969,"station_id":143,"station_name":"Pont Street, Knightsbridge","ntrips":4,"trips":[{"station":"Neville Gill Close, Wandsworth","duration":1620,"type":"inbound","distance":6808,"time":"08:01","ts":20},{"station":"St. George Street, Mayfair","duration":840,"type":"outbound","distance":2758,"time":"08:14","ts":280},{"station":"Rampayne Street, Pimlico","duration":720,"type":"inbound","distance":2443,"time":"08:16","ts":320},{"station":"Rampayne Street, Pimlico","duration":780,"type":"inbound","distance":2443,"time":"08:16","ts":320}]},{"longitude":-0.111436,"latitude":51.4889,"station_id":144,"station_name":"Kennington Cross, Kennington","ntrips":6,"trips":[{"station":"Doddington Grove, Kennington","duration":360,"type":"inbound","distance":1751,"time":"08:00","ts":0},{"station":"Geraldine Street, Elephant & Castle","duration":240,"type":"outbound","distance":1922,"time":"08:29","ts":580},{"station":"Lambeth Road, Vauxhall","duration":480,"type":"inbound","distance":1347,"time":"08:52","ts":1040},{"station":"Kennington Lane Rail Bridge, Vauxhall","duration":300,"type":"outbound","distance":1346,"time":"09:14","ts":1480},{"station":"Eagle Wharf Road, Hoxton","duration":1680,"type":"outbound","distance":7528,"time":"09:16","ts":1520},{"station":"Lots Road, West Chelsea","duration":1140,"type":"outbound","distance":6126,"time":"09:25","ts":1700}]},{"longitude":-0.202759,"latitude":51.5007,"station_id":145,"station_name":"Ilchester Place, Kensington","ntrips":0,"trips":[]},{"longitude":-0.129362,"latitude":51.4884,"station_id":146,"station_name":"Vauxhall Bridge, Pimlico","ntrips":0,"trips":[]},{"longitude":-0.116146,"latitude":51.5149,"station_id":147,"station_name":"Portugal Street, Holborn","ntrips":0,"trips":[]},{"longitude":-0.138365,"latitude":51.4921,"station_id":148,"station_name":"Tachbrook Street, Victoria","ntrips":2,"trips":[{"station":"Bermondsey Street, Bermondsey","duration":1380,"type":"inbound","distance":5213,"time":"09:03","ts":1260},{"station":"Sumner Place, South Kensington","duration":780,"type":"inbound","distance":3448,"time":"09:06","ts":1320}]},{"longitude":-0.110683,"latitude":51.4848,"station_id":149,"station_name":"Kennington Road Post Office, Oval","ntrips":0,"trips":[]},{"longitude":-0.168917,"latitude":51.4971,"station_id":150,"station_name":"Holy Trinity Brompton, Knightsbridge","ntrips":1,"trips":[{"station":"Shepherd's Bush Road North, Shepherd's Bush","duration":1080,"type":"inbound","distance":5135,"time":"08:42","ts":840}]},{"longitude":-0.201555,"latitude":51.5121,"station_id":151,"station_name":"Chepstow Villas, Notting Hill","ntrips":0,"trips":[]},{"longitude":-0.101537,"latitude":51.4922,"station_id":152,"station_name":"Hampton Street, Walworth","ntrips":0,"trips":[]},{"longitude":-0.174293,"latitude":51.5118,"station_id":153,"station_name":"Bayswater Road, Hyde Park","ntrips":1,"trips":[{"station":"Eaton Square, Belgravia","duration":720,"type":"outbound","distance":3566,"time":"08:14","ts":280}]},{"longitude":-0.113864,"latitude":51.504,"station_id":154,"station_name":"Waterloo Station 3, Waterloo","ntrips":1,"trips":[{"station":"Granby Street, Shoreditch","duration":1620,"type":"outbound","distance":6692,"time":"08:27","ts":540}]},{"longitude":-0.191934,"latitude":51.4959,"station_id":155,"station_name":"Lexham Gardens, Kensington","ntrips":4,"trips":[{"station":"Craven Street, Strand","duration":1320,"type":"inbound","distance":5300,"time":"08:01","ts":20},{"station":"Black Lion Gate, Kensington Gardens","duration":840,"type":"inbound","distance":2243,"time":"08:06","ts":120},{"station":"Seville Street, Knightsbridge","duration":720,"type":"outbound","distance":4292,"time":"08:22","ts":440},{"station":"Exhibition Road Museums 2, South Kensington","duration":660,"type":"outbound","distance":13613,"time":"08:29","ts":580}]},{"longitude":-0.0929212,"latitude":51.4944,"station_id":156,"station_name":"New Kent Road, The Borough","ntrips":1,"trips":[{"station":"Cheapside, Bank","duration":600,"type":"outbound","distance":5827,"time":"09:16","ts":1520}]},{"longitude":-0.193068,"latitude":51.5004,"station_id":157,"station_name":"Wright's Lane, Kensington","ntrips":4,"trips":[{"station":"Clarges Street, Mayfair","duration":720,"type":"outbound","distance":5045,"time":"08:12","ts":240},{"station":"Queen's Gate (South), South Kensington","duration":420,"type":"inbound","distance":1889,"time":"08:57","ts":1140},{"station":"Abingdon Villas, Kensington","duration":120,"type":"outbound","distance":595,"time":"09:15","ts":1500},{"station":"Abingdon Villas, Kensington","duration":180,"type":"inbound","distance":595,"time":"09:16","ts":1520}]},{"longitude":-0.19617,"latitude":51.4909,"station_id":158,"station_name":"Trebovir Road, Earl's Court","ntrips":1,"trips":[{"station":"Everington Street, Fulham","duration":480,"type":"outbound","distance":2568,"time":"08:21","ts":420}]},{"longitude":-0.137841,"latitude":51.5146,"station_id":159,"station_name":"Great Marlborough Street, Soho","ntrips":2,"trips":[{"station":"Queen Street 2, Bank","duration":900,"type":"inbound","distance":4251,"time":"08:54","ts":1080},{"station":"Warren Street Station, Euston","duration":480,"type":"inbound","distance":1506,"time":"09:13","ts":1460}]},{"longitude":-0.131774,"latitude":51.5066,"station_id":160,"station_name":"Waterloo Place, St. James's","ntrips":4,"trips":[{"station":"Gloucester Road (North), Kensington","duration":1020,"type":"inbound","distance":4590,"time":"08:06","ts":120},{"station":"Albert Gardens, Stepney","duration":2100,"type":"inbound","distance":6746,"time":"08:52","ts":1040},{"station":"Lambeth North Station, Waterloo","duration":660,"type":"inbound","distance":3338,"time":"09:04","ts":1280},{"station":"Allington Street, Victoria","duration":1020,"type":"inbound","distance":2341,"time":"09:12","ts":1440}]},{"longitude":-0.141334,"latitude":51.4923,"station_id":161,"station_name":"Guildhouse Street, Victoria","ntrips":2,"trips":[{"station":"Old Brompton Road, South Kensington","duration":780,"type":"outbound","distance":3670,"time":"08:20","ts":400},{"station":"Clarence Walk, Stockwell","duration":1140,"type":"inbound","distance":3813,"time":"08:44","ts":880}]},{"longitude":-0.121328,"latitude":51.5176,"station_id":162,"station_name":"Southampton Place, Holborn","ntrips":2,"trips":[{"station":"Baldwin Street, St. Luke's","duration":660,"type":"inbound","distance":3350,"time":"08:02","ts":40},{"station":"Cadogan Close, Victoria Park","duration":1860,"type":"inbound","distance":7956,"time":"08:43","ts":860}]},{"longitude":-0.167895,"latitude":51.4932,"station_id":163,"station_name":"Sloane Avenue, Knightsbridge","ntrips":5,"trips":[{"station":"Eccleston Place, Victoria","duration":780,"type":"inbound","distance":2033,"time":"08:14","ts":280},{"station":"Penywern Road, Earl's Court","duration":540,"type":"inbound","distance":3639,"time":"08:16","ts":320},{"station":"Bevington Road West, North Kensington","duration":1200,"type":"outbound","distance":5805,"time":"08:24","ts":480},{"station":"Penfold Street, Marylebone","duration":1440,"type":"outbound","distance":5089,"time":"08:28","ts":560},{"station":"Waterloo Bridge, South Bank","duration":1560,"type":"outbound","distance":5101,"time":"09:14","ts":1480}]},{"longitude":-0.183119,"latitude":51.5156,"station_id":164,"station_name":"Cleveland Gardens, Bayswater","ntrips":1,"trips":[{"station":"Bruton Street, Mayfair","duration":660,"type":"outbound","distance":3409,"time":"09:02","ts":1240}]},{"longitude":-0.183717,"latitude":51.5179,"station_id":165,"station_name":"Orsett Terrace, Bayswater","ntrips":3,"trips":[{"station":"Blenheim Crescent, Ladbroke Grove","duration":660,"type":"inbound","distance":2269,"time":"08:53","ts":1060},{"station":"Blenheim Crescent, Ladbroke Grove","duration":660,"type":"inbound","distance":2269,"time":"08:53","ts":1060},{"station":"Clarendon Road, Avondale","duration":540,"type":"outbound","distance":2416,"time":"09:13","ts":1460}]},{"longitude":-0.159237,"latitude":51.5019,"station_id":166,"station_name":"Seville Street, Knightsbridge","ntrips":4,"trips":[{"station":"St. Peter's Terrace, Fulham","duration":1020,"type":"inbound","distance":5694,"time":"08:03","ts":60},{"station":"Craven Street, Strand","duration":540,"type":"inbound","distance":2634,"time":"08:09","ts":180},{"station":"Lexham Gardens, Kensington","duration":720,"type":"inbound","distance":4292,"time":"08:10","ts":200},{"station":"Dorset Square, Marylebone","duration":540,"type":"inbound","distance":3836,"time":"08:13","ts":260}]},{"longitude":-0.147624,"latitude":51.494,"station_id":167,"station_name":"Eccleston Place, Victoria","ntrips":7,"trips":[{"station":"Flood Street, Chelsea","duration":420,"type":"inbound","distance":2355,"time":"08:12","ts":240},{"station":"Sloane Avenue, Knightsbridge","duration":780,"type":"outbound","distance":2033,"time":"08:27","ts":540},{"station":"Old Quebec Street, Marylebone","duration":780,"type":"outbound","distance":3818,"time":"08:27","ts":540},{"station":"Ilchester Gardens, Bayswater","duration":1200,"type":"inbound","distance":6213,"time":"08:43","ts":860},{"station":"Albert Bridge Road, Battersea Park","duration":960,"type":"inbound","distance":4428,"time":"09:11","ts":1420},{"station":"Manresa Road, Chelsea","duration":420,"type":"outbound","distance":2553,"time":"09:26","ts":1720},{"station":"Warwick Square, Pimlico","duration":240,"type":"inbound","distance":837,"time":"09:26","ts":1720}]},{"longitude":-0.195456,"latitude":51.5004,"station_id":168,"station_name":"Argyll Road, Kensington","ntrips":0,"trips":[]},{"longitude":-0.165164,"latitude":51.5147,"station_id":169,"station_name":"Porchester Place, Paddington","ntrips":3,"trips":[{"station":"Mallory Street, Marylebone","duration":420,"type":"inbound","distance":1517,"time":"08:12","ts":240},{"station":"Porchester Place, Paddington","duration":1020,"type":"outbound","distance":0,"time":"09:11","ts":1420},{"station":"Porchester Place, Paddington","duration":1500,"type":"outbound","distance":0,"time":"09:13","ts":1460}]},{"longitude":-0.108068,"latitude":51.5278,"station_id":170,"station_name":"Hardwick Street, Clerkenwell","ntrips":0,"trips":[]},{"longitude":-0.186754,"latitude":51.4916,"station_id":171,"station_name":"Collingham Gardens, Earl's Court","ntrips":0,"trips":[]},{"longitude":-0.173716,"latitude":51.4912,"station_id":172,"station_name":"Sumner Place, South Kensington","ntrips":2,"trips":[{"station":"Tachbrook Street, Victoria","duration":780,"type":"outbound","distance":3448,"time":"09:19","ts":1580},{"station":"Seymour Place, Marylebone","duration":1500,"type":"outbound","distance":5080,"time":"09:28","ts":1760}]},{"longitude":-0.113001,"latitude":51.5049,"station_id":173,"station_name":"Waterloo Road, South Bank","ntrips":2,"trips":[{"station":"Cheapside, Bank","duration":480,"type":"outbound","distance":4643,"time":"08:23","ts":459.99999999999994},{"station":"Tower Wharf, Bermondsey","duration":1140,"type":"inbound","distance":3302,"time":"08:59","ts":1180}]},{"longitude":-0.115163,"latitude":51.5125,"station_id":174,"station_name":"Strand, Strand","ntrips":3,"trips":[{"station":"Cranmer Road, Stockwell","duration":900,"type":"inbound","distance":4454,"time":"08:46","ts":919.9999999999999},{"station":"Islington Green, Angel","duration":840,"type":"inbound","distance":3533,"time":"08:46","ts":919.9999999999999},{"station":"Fashion Street, Whitechapel","duration":1020,"type":"inbound","distance":4801,"time":"09:11","ts":1420}]},{"longitude":-0.0811189,"latitude":51.5217,"station_id":175,"station_name":"Worship Street, Shoreditch","ntrips":1,"trips":[{"station":"Pritchard's Road, Bethnal Green","duration":420,"type":"inbound","distance":2435,"time":"08:09","ts":180}]},{"longitude":-0.188099,"latitude":51.5179,"station_id":176,"station_name":"Gloucester Terrace, Bayswater","ntrips":0,"trips":[]},{"longitude":-0.140948,"latitude":51.4962,"station_id":177,"station_name":"Ashley Place, Victoria","ntrips":1,"trips":[{"station":"Page Street, Westminster","duration":300,"type":"outbound","distance":1837,"time":"08:22","ts":440}]},{"longitude":-0.141924,"latitude":51.4899,"station_id":178,"station_name":"Warwick Square, Pimlico","ntrips":2,"trips":[{"station":"Queen's Circus, Battersea Park","duration":1080,"type":"outbound","distance":2305,"time":"09:10","ts":1400},{"station":"Eccleston Place, Victoria","duration":240,"type":"outbound","distance":837,"time":"09:30","ts":1800}]},{"longitude":-0.153645,"latitude":51.5129,"station_id":180,"station_name":"North Audley Street, Mayfair","ntrips":0,"trips":[]},{"longitude":-0.152318,"latitude":51.4994,"station_id":181,"station_name":"Belgrave Square, Belgravia","ntrips":2,"trips":[{"station":"Vauxhall Walk, Vauxhall","duration":720,"type":"inbound","distance":4326,"time":"08:00","ts":0},{"station":"Phillimore Gardens, Kensington","duration":900,"type":"outbound","distance":3765,"time":"08:26","ts":520}]},{"longitude":-0.165843,"latitude":51.522,"station_id":182,"station_name":"Bell Street, Marylebone","ntrips":1,"trips":[{"station":"Maida Vale, Maida Vale","duration":480,"type":"outbound","distance":1875,"time":"09:23","ts":1660}]},{"longitude":-0.136124,"latitude":51.4824,"station_id":183,"station_name":"Riverlight North, Nine Elms","ntrips":0,"trips":[]},{"longitude":-0.145212,"latitude":51.5207,"station_id":184,"station_name":"Portland Place, Marylebone","ntrips":1,"trips":[{"station":"Ashmole Estate, Oval","duration":1440,"type":"inbound","distance":6234,"time":"08:43","ts":860}]},{"longitude":-0.140741,"latitude":51.4881,"station_id":185,"station_name":"Alderney Street, Pimlico","ntrips":0,"trips":[]},{"longitude":-0.175811,"latitude":51.5173,"station_id":186,"station_name":"South Wharf Road, Paddington","ntrips":1,"trips":[{"station":"Charlotte Street, Fitzrovia","duration":780,"type":"outbound","distance":3432,"time":"08:27","ts":540}]},{"longitude":-0.178433,"latitude":51.4925,"station_id":187,"station_name":"Queen's Gate (South), South Kensington","ntrips":2,"trips":[{"station":"St. Martin's Street, West End","duration":1080,"type":"outbound","distance":4504,"time":"09:04","ts":1280},{"station":"Wright's Lane, Kensington","duration":420,"type":"outbound","distance":1889,"time":"09:04","ts":1280}]},{"longitude":-0.164394,"latitude":51.5165,"station_id":188,"station_name":"Nutford Place, Marylebone","ntrips":1,"trips":[{"station":"South Kensington Station, South Kensington","duration":1020,"type":"inbound","distance":4001,"time":"08:52","ts":1040}]},{"longitude":-0.109915,"latitude":51.5317,"station_id":189,"station_name":"Claremont Square, Angel","ntrips":1,"trips":[{"station":"Wellington Row, Bethnal Green","duration":840,"type":"inbound","distance":3241,"time":"08:57","ts":1140}]},{"longitude":-0.132846,"latitude":51.49,"station_id":190,"station_name":"Rampayne Street, Pimlico","ntrips":5,"trips":[{"station":"Bayley Street , Bloomsbury","duration":840,"type":"outbound","distance":5074,"time":"08:25","ts":500},{"station":"Queen Street 1, Bank","duration":1080,"type":"outbound","distance":5142,"time":"08:26","ts":520},{"station":"Pont Street, Knightsbridge","duration":720,"type":"outbound","distance":2443,"time":"08:28","ts":560},{"station":"Pont Street, Knightsbridge","duration":780,"type":"outbound","distance":2443,"time":"08:29","ts":580},{"station":"Queen's Circus, Battersea Park","duration":1080,"type":"inbound","distance":2391,"time":"09:11","ts":1420}]},{"longitude":-0.153521,"latitude":51.5031,"station_id":191,"station_name":"Hyde Park Corner, Hyde Park","ntrips":4,"trips":[{"station":"St. Mark's Road, North Kensington","duration":1200,"type":"inbound","distance":5993,"time":"08:05","ts":100},{"station":"Reardon Street, Wapping","duration":1860,"type":"inbound","distance":7807,"time":"08:40","ts":800},{"station":"Lancaster Gate , Bayswater","duration":780,"type":"outbound","distance":2787,"time":"09:02","ts":1240},{"station":"De Vere Gardens, Kensington","duration":1140,"type":"outbound","distance":2274,"time":"09:15","ts":1500}]},{"longitude":-0.133202,"latitude":51.5125,"station_id":192,"station_name":"Wardour Street, Soho","ntrips":0,"trips":[]},{"longitude":-0.100186,"latitude":51.5058,"station_id":193,"station_name":"Bankside Mix, Bankside","ntrips":2,"trips":[{"station":"Watney Street, Shadwell","duration":720,"type":"inbound","distance":4057,"time":"08:18","ts":360},{"station":"Wellington Street , Strand","duration":480,"type":"inbound","distance":2681,"time":"08:56","ts":1120}]},{"longitude":-0.0917738,"latitude":51.5046,"station_id":194,"station_name":"Hop Exchange, The Borough","ntrips":2,"trips":[{"station":"Dock Street, Wapping","duration":600,"type":"inbound","distance":2918,"time":"08:00","ts":0},{"station":"Union Street, The Borough","duration":120,"type":"outbound","distance":1397,"time":"08:17","ts":340}]},{"longitude":-0.106238,"latitude":51.5072,"station_id":195,"station_name":"Milroy Walk, South Bank","ntrips":1,"trips":[{"station":"Mallory Street, Marylebone","duration":1500,"type":"outbound","distance":6464,"time":"08:25","ts":500}]},{"longitude":-0.0984977,"latitude":51.5037,"station_id":196,"station_name":"Union Street, The Borough","ntrips":1,"trips":[{"station":"Hop Exchange, The Borough","duration":120,"type":"inbound","distance":1397,"time":"08:15","ts":300}]},{"longitude":-0.111607,"latitude":51.5056,"station_id":197,"station_name":"Stamford Street, South Bank","ntrips":1,"trips":[{"station":"Finsbury Library , Finsbury","duration":720,"type":"inbound","distance":3245,"time":"09:11","ts":1420}]},{"longitude":-0.0829896,"latitude":51.5105,"station_id":199,"station_name":"Great Tower Street, Monument","ntrips":6,"trips":[{"station":"Great Russell Street, Bloomsbury","duration":720,"type":"inbound","distance":5169,"time":"08:08","ts":160},{"station":"Roscoe Street, St. Luke's","duration":600,"type":"inbound","distance":4559,"time":"08:16","ts":320},{"station":"Lambeth Palace Road, Waterloo","duration":900,"type":"outbound","distance":5200,"time":"08:16","ts":320},{"station":"Waterloo Station 1, Waterloo","duration":780,"type":"inbound","distance":3661,"time":"08:17","ts":340},{"station":"Bishop's Bridge Road West, Bayswater","duration":2640,"type":"inbound","distance":9651,"time":"08:23","ts":459.99999999999994},{"station":"Bishop's Bridge Road West, Bayswater","duration":2580,"type":"inbound","distance":9651,"time":"08:25","ts":500}]},{"longitude":-0.066078,"latitude":51.5149,"station_id":200,"station_name":"LMU Commercial Road, Whitechapel","ntrips":1,"trips":[{"station":"Tooley Street, Bermondsey","duration":540,"type":"outbound","distance":2905,"time":"08:23","ts":459.99999999999994}]},{"longitude":-0.161113,"latitude":51.5226,"station_id":201,"station_name":"Dorset Square, Marylebone","ntrips":2,"trips":[{"station":"Seville Street, Knightsbridge","duration":540,"type":"outbound","distance":3836,"time":"08:22","ts":440},{"station":"Russell Square Station, Bloomsbury","duration":840,"type":"outbound","distance":3109,"time":"08:29","ts":580}]},{"longitude":-0.069542,"latitude":51.5124,"station_id":202,"station_name":"Leman Street, Aldgate","ntrips":1,"trips":[{"station":"Duke Street Hill, London Bridge","duration":420,"type":"outbound","distance":2957,"time":"08:13","ts":260}]},{"longitude":-0.100791,"latitude":51.5182,"station_id":203,"station_name":"West Smithfield Rotunda, Farringdon","ntrips":3,"trips":[{"station":"Queen Victoria Street, St. Paul's","duration":240,"type":"outbound","distance":1781,"time":"08:18","ts":360},{"station":"Scala Street, Fitzrovia","duration":780,"type":"inbound","distance":3705,"time":"08:50","ts":1000},{"station":"New Road 1 , Whitechapel","duration":900,"type":"outbound","distance":4381,"time":"09:04","ts":1280}]},{"longitude":-0.112433,"latitude":51.5266,"station_id":204,"station_name":"Margery Street, Clerkenwell","ntrips":1,"trips":[{"station":"Blackfriars Station, St. Paul's","duration":660,"type":"outbound","distance":2531,"time":"09:11","ts":1420}]},{"longitude":-0.06275,"latitude":51.5181,"station_id":206,"station_name":"New Road 1, Whitechapel","ntrips":4,"trips":[{"station":"Queen Street 1, Bank","duration":780,"type":"inbound","distance":4353,"time":"08:03","ts":60},{"station":"Norton Folgate, Liverpool Street","duration":780,"type":"inbound","distance":2221,"time":"08:09","ts":180},{"station":"West Smithfield Rotunda, Farringdon","duration":900,"type":"inbound","distance":4381,"time":"08:49","ts":979.9999999999999},{"station":"Brushfield Street, Liverpool Street","duration":360,"type":"inbound","distance":2488,"time":"09:00","ts":1200}]},{"longitude":-0.153195,"latitude":51.5014,"station_id":207,"station_name":"Grosvenor Crescent, Belgravia","ntrips":0,"trips":[]},{"longitude":-0.166304,"latitude":51.5251,"station_id":208,"station_name":"Mallory Street, Marylebone","ntrips":2,"trips":[{"station":"Milroy Walk, South Bank","duration":1500,"type":"inbound","distance":6464,"time":"08:00","ts":0},{"station":"Porchester Place, Paddington","duration":420,"type":"outbound","distance":1517,"time":"08:19","ts":380}]},{"longitude":-0.165101,"latitude":51.4936,"station_id":209,"station_name":"Denyer Street, Knightsbridge","ntrips":2,"trips":[{"station":"Panton Street, West End","duration":1140,"type":"outbound","distance":3622,"time":"08:19","ts":380},{"station":"Sedding Street, Sloane Square","duration":240,"type":"outbound","distance":872,"time":"09:24","ts":1680}]},{"longitude":-0.151926,"latitude":51.5168,"station_id":210,"station_name":"Hinde Street, Marylebone","ntrips":9,"trips":[{"station":"The Tennis Courts, The Regent's Park","duration":360,"type":"outbound","distance":1408,"time":"08:07","ts":140},{"station":"The Tennis Courts, The Regent's Park","duration":360,"type":"outbound","distance":1408,"time":"08:07","ts":140},{"station":"Russell Gardens, Olympia","duration":1980,"type":"inbound","distance":7961,"time":"08:35","ts":700},{"station":"The Tennis Courts, The Regent's Park","duration":240,"type":"inbound","distance":1983,"time":"08:57","ts":1140},{"station":"The Tennis Courts, The Regent's Park","duration":300,"type":"inbound","distance":1983,"time":"08:57","ts":1140},{"station":"Bolsover Street, Fitzrovia","duration":300,"type":"inbound","distance":1313,"time":"09:06","ts":1320},{"station":"St Mary's Hospital, Paddington","duration":540,"type":"outbound","distance":2601,"time":"09:11","ts":1420},{"station":"Golden Square, Soho","duration":420,"type":"inbound","distance":2031,"time":"09:16","ts":1520},{"station":"Parkway, Camden Town","duration":1140,"type":"outbound","distance":3081,"time":"09:30","ts":1800}]},{"longitude":-0.158106,"latitude":51.4946,"station_id":211,"station_name":"Cadogan Place, Knightsbridge","ntrips":1,"trips":[{"station":"Phillimore Gardens, Kensington","duration":1140,"type":"inbound","distance":3759,"time":"08:51","ts":1020}]},{"longitude":-0.199004,"latitude":51.5066,"station_id":212,"station_name":"Campden Hill Road, Notting Hill","ntrips":0,"trips":[]},{"longitude":-0.149569,"latitude":51.5027,"station_id":213,"station_name":"Wellington Arch, Hyde Park","ntrips":0,"trips":[]},{"longitude":-0.130504,"latitude":51.5268,"station_id":214,"station_name":"Endsleigh Gardens, Euston","ntrips":2,"trips":[{"station":"Kennington Lane Rail Bridge, Vauxhall","duration":1380,"type":"outbound","distance":6097,"time":"08:23","ts":459.99999999999994},{"station":"Fournier Street, Whitechapel","duration":1320,"type":"outbound","distance":4811,"time":"09:09","ts":1380}]},{"longitude":-0.0882854,"latitude":51.5191,"station_id":215,"station_name":"Moorfields, Moorgate","ntrips":2,"trips":[{"station":"Royal London Hospital, Whitechapel","duration":600,"type":"inbound","distance":3293,"time":"08:57","ts":1140},{"station":"Wenlock Road , Hoxton","duration":420,"type":"inbound","distance":3335,"time":"09:21","ts":1620}]},{"longitude":-0.181191,"latitude":51.4909,"station_id":216,"station_name":"Old Brompton Road, South Kensington","ntrips":2,"trips":[{"station":"Guildhouse Street, Victoria","duration":780,"type":"inbound","distance":3670,"time":"08:07","ts":140},{"station":"Hibbert Street, Battersea","duration":840,"type":"inbound","distance":3486,"time":"08:15","ts":300}]},{"longitude":-0.0824224,"latitude":51.5162,"station_id":217,"station_name":"Wormwood Street, Liverpool Street","ntrips":5,"trips":[{"station":"Bouverie Street, Temple","duration":540,"type":"outbound","distance":2707,"time":"08:11","ts":220},{"station":"Lambeth Palace Road, Waterloo","duration":960,"type":"outbound","distance":4565,"time":"08:26","ts":520},{"station":"Waterloo Station 1, Waterloo","duration":900,"type":"inbound","distance":4152,"time":"08:51","ts":1020},{"station":"Craven Street, Strand","duration":1140,"type":"outbound","distance":5117,"time":"09:07","ts":1340},{"station":"Hermitage Court, Wapping","duration":720,"type":"inbound","distance":4982,"time":"09:12","ts":1440}]},{"longitude":-0.170194,"latitude":51.4897,"station_id":218,"station_name":"St. Luke's Church, Chelsea","ntrips":2,"trips":[{"station":"Heath Road, Battersea","duration":900,"type":"inbound","distance":4141,"time":"08:01","ts":20},{"station":"Falcon Road, Clapham Junction","duration":600,"type":"outbound","distance":3165,"time":"08:21","ts":420}]},{"longitude":-0.190394,"latitude":51.4902,"station_id":219,"station_name":"Bramham Gardens, Earl's Court","ntrips":2,"trips":[{"station":"Maida Vale, Maida Vale","duration":960,"type":"inbound","distance":9228,"time":"08:12","ts":240},{"station":"West Cromwell Road, Earl's Court","duration":300,"type":"inbound","distance":850,"time":"09:05","ts":1300}]},{"longitude":-0.166485,"latitude":51.4907,"station_id":220,"station_name":"Chelsea Green, Chelsea","ntrips":1,"trips":[{"station":"Queen's Gate, Kensington Gardens","duration":780,"type":"inbound","distance":2046,"time":"08:58","ts":1160}]},{"longitude":-0.130459,"latitude":51.4948,"station_id":221,"station_name":"Horseferry Road, Westminster","ntrips":1,"trips":[{"station":"Lollard Street, Vauxhall","duration":300,"type":"inbound","distance":1210,"time":"08:09","ts":180}]},{"longitude":-0.15535,"latitude":51.5028,"station_id":222,"station_name":"Knightsbridge, Hyde Park","ntrips":0,"trips":[]},{"longitude":-0.0902209,"latitude":51.4915,"station_id":223,"station_name":"Rodney Road, Walworth","ntrips":1,"trips":[{"station":"St Martins Close, Camden Town","duration":2400,"type":"outbound","distance":7972,"time":"09:01","ts":1220}]},{"longitude":-0.1874024,"latitude":51.51031,"station_id":224,"station_name":"Queensway, Westminster","ntrips":0,"trips":[]},{"longitude":-0.196422,"latitude":51.5094,"station_id":225,"station_name":"Notting Hill Gate Station, Notting Hill","ntrips":1,"trips":[{"station":"St. Mark's Road, North Kensington","duration":540,"type":"outbound","distance":1920,"time":"08:18","ts":360}]},{"longitude":-0.131961,"latitude":51.5084,"station_id":226,"station_name":"Charles II Street, West End","ntrips":0,"trips":[]},{"longitude":-0.115481,"latitude":51.5289,"station_id":227,"station_name":"Great Percy Street, Clerkenwell","ntrips":0,"trips":[]},{"longitude":-0.134621,"latitude":51.5074,"station_id":228,"station_name":"St. James's Square, St. James's","ntrips":0,"trips":[]},{"longitude":-0.12318,"latitude":51.5065,"station_id":229,"station_name":"Whitehall Place, Strand","ntrips":0,"trips":[]},{"longitude":-0.103137,"latitude":51.5067,"station_id":230,"station_name":"Poured Lines, Bankside","ntrips":0,"trips":[]},{"longitude":-0.178732,"latitude":51.494,"station_id":231,"station_name":"Queen's Gate (Central), South Kensington","ntrips":1,"trips":[{"station":"Grosvenor Square, Mayfair","duration":1080,"type":"outbound","distance":4254,"time":"09:13","ts":1460}]},{"longitude":-0.112753,"latitude":51.515,"station_id":232,"station_name":"Carey Street, Holborn","ntrips":1,"trips":[{"station":"Theobald's Road , Holborn","duration":240,"type":"inbound","distance":1333,"time":"09:00","ts":1200}]},{"longitude":-0.1307,"latitude":51.5078,"station_id":233,"station_name":"Pall Mall East, West End","ntrips":0,"trips":[]},{"longitude":-0.106993,"latitude":51.5345,"station_id":234,"station_name":"Liverpool Road (N1 Centre), Angel","ntrips":2,"trips":[{"station":"Albert Embankment, Vauxhall","duration":1800,"type":"outbound","distance":5961,"time":"09:24","ts":1680},{"station":"Albert Embankment, Vauxhall","duration":1800,"type":"outbound","distance":5961,"time":"09:24","ts":1680}]},{"longitude":-0.110889,"latitude":51.4957,"station_id":235,"station_name":"Kennington Road, Vauxhall","ntrips":1,"trips":[{"station":"Kennington Oval, Oval","duration":480,"type":"outbound","distance":1574,"time":"08:27","ts":540}]},{"longitude":-0.0734389,"latitude":51.5184,"station_id":236,"station_name":"Fashion Street, Whitechapel","ntrips":1,"trips":[{"station":"Strand, Strand","duration":1020,"type":"outbound","distance":4801,"time":"09:28","ts":1760}]},{"longitude":-0.0671764,"latitude":51.5084,"station_id":237,"station_name":"Dock Street, Wapping","ntrips":3,"trips":[{"station":"Hop Exchange, The Borough","duration":600,"type":"outbound","distance":2918,"time":"08:10","ts":200},{"station":"Christopher Street, Liverpool Street","duration":540,"type":"outbound","distance":3662,"time":"08:29","ts":580},{"station":"Eagle Wharf Road, Hoxton","duration":2040,"type":"outbound","distance":4486,"time":"09:24","ts":1680}]},{"longitude":-0.175116,"latitude":51.5234,"station_id":238,"station_name":"Frampton Street, Paddington","ntrips":0,"trips":[]},{"longitude":-0.138019,"latitude":51.5244,"station_id":239,"station_name":"Warren Street Station, Euston","ntrips":8,"trips":[{"station":"Millbank Tower, Pimlico","duration":900,"type":"inbound","distance":4575,"time":"08:04","ts":80},{"station":"Paddington Street, Marylebone","duration":480,"type":"inbound","distance":2196,"time":"08:15","ts":300},{"station":"Greenland Road, Camden Town","duration":540,"type":"inbound","distance":2600,"time":"08:19","ts":380},{"station":"Addison Road, Holland Park","duration":1560,"type":"inbound","distance":9170,"time":"08:42","ts":840},{"station":"Harrowby Street, Marylebone","duration":660,"type":"inbound","distance":3646,"time":"08:56","ts":1120},{"station":"Greenland Road, Camden Town","duration":600,"type":"outbound","distance":3185,"time":"09:12","ts":1440},{"station":"Tyers Gate, Bermondsey","duration":1560,"type":"outbound","distance":8194,"time":"09:13","ts":1460},{"station":"Great Marlborough Street, Soho","duration":480,"type":"outbound","distance":1506,"time":"09:21","ts":1620}]},{"longitude":-0.105692,"latitude":51.5055,"station_id":240,"station_name":"Colombo Street, Southwark","ntrips":3,"trips":[{"station":"Fire Brigade Pier, Vauxhall","duration":660,"type":"inbound","distance":2309,"time":"08:00","ts":0},{"station":"New Fetter Lane, Holborn","duration":540,"type":"outbound","distance":1748,"time":"09:10","ts":1400},{"station":"Farringdon Street, Holborn","duration":300,"type":"outbound","distance":1319,"time":"09:28","ts":1760}]},{"longitude":-0.151359,"latitude":51.522,"station_id":242,"station_name":"Beaumont Street, Marylebone","ntrips":1,"trips":[{"station":"Maida Vale, Maida Vale","duration":660,"type":"inbound","distance":3054,"time":"08:12","ts":240}]},{"longitude":-0.139625,"latitude":51.491,"station_id":243,"station_name":"Gloucester Street, Pimlico","ntrips":2,"trips":[{"station":"Golden Square, Soho","duration":840,"type":"outbound","distance":3522,"time":"08:23","ts":459.99999999999994},{"station":"Tallis Street, Temple","duration":1200,"type":"outbound","distance":5339,"time":"09:20","ts":1600}]},{"longitude":-0.128585,"latitude":51.5161,"station_id":244,"station_name":"Earnshaw Street, Covent Garden","ntrips":0,"trips":[]},{"longitude":-0.142207,"latitude":51.4854,"station_id":245,"station_name":"Grosvenor Road, Pimlico","ntrips":0,"trips":[]},{"longitude":-0.0999941,"latitude":51.5229,"station_id":246,"station_name":"Berry Street, Clerkenwell","ntrips":2,"trips":[{"station":"Belford House, Haggerston","duration":600,"type":"inbound","distance":3064,"time":"08:09","ts":180},{"station":"Old Street Station, St. Luke's","duration":300,"type":"inbound","distance":855,"time":"08:56","ts":1120}]},{"longitude":-0.168314,"latitude":51.5301,"station_id":247,"station_name":"St. John's Wood Church, The Regent's Park","ntrips":2,"trips":[{"station":"Prince Albert Road, The Regent's Park","duration":240,"type":"inbound","distance":910,"time":"08:16","ts":320},{"station":"Bishop's Bridge Road West, Bayswater","duration":540,"type":"outbound","distance":2765,"time":"08:20","ts":400}]},{"longitude":-0.17028,"latitude":51.5065,"station_id":248,"station_name":"Triangle Car Park, Hyde Park","ntrips":0,"trips":[]},{"longitude":-0.0961911,"latitude":51.4986,"station_id":249,"station_name":"Harper Road, The Borough","ntrips":1,"trips":[{"station":"Wynne Road, Stockwell","duration":1020,"type":"outbound","distance":3798,"time":"09:24","ts":1680}]},{"longitude":-0.162727,"latitude":51.4899,"station_id":250,"station_name":"Royal Avenue 1, Chelsea","ntrips":0,"trips":[]},{"longitude":-0.079249,"latitude":51.5189,"station_id":251,"station_name":"Brushfield Street, Liverpool Street","ntrips":6,"trips":[{"station":"Nesham Street, Wapping","duration":540,"type":"inbound","distance":3538,"time":"08:00","ts":0},{"station":"Royal London Hospital, Whitechapel","duration":420,"type":"outbound","distance":3072,"time":"08:13","ts":260},{"station":"Belford House, Haggerston","duration":660,"type":"inbound","distance":2350,"time":"08:18","ts":360},{"station":"Dunston Road , Haggerston","duration":540,"type":"outbound","distance":2370,"time":"08:27","ts":540},{"station":"Shoreditch High Street, Shoreditch","duration":360,"type":"outbound","distance":1235,"time":"09:06","ts":1320},{"station":"New Road 1 , Whitechapel","duration":360,"type":"outbound","distance":2488,"time":"09:06","ts":1320}]},{"longitude":-0.116542,"latitude":51.5046,"station_id":252,"station_name":"Jubilee Gardens, South Bank","ntrips":0,"trips":[]},{"longitude":-0.0863797,"latitude":51.534,"station_id":253,"station_name":"Shoreditch Park, Hoxton","ntrips":1,"trips":[{"station":"Clerkenwell Green, Clerkenwell","duration":480,"type":"inbound","distance":2274,"time":"09:19","ts":1580}]},{"longitude":-0.106408,"latitude":51.5305,"station_id":254,"station_name":"Chadwell Street, Angel","ntrips":1,"trips":[{"station":"Finsbury Circus, Liverpool Street","duration":720,"type":"outbound","distance":2990,"time":"08:15","ts":300}]},{"longitude":-0.179593,"latitude":51.5256,"station_id":255,"station_name":"Clifton Road, Maida Vale","ntrips":2,"trips":[{"station":"Bolsover Street, Fitzrovia","duration":720,"type":"outbound","distance":3616,"time":"09:12","ts":1440},{"station":"Warwick Avenue Station, Maida Vale","duration":120,"type":"inbound","distance":501,"time":"09:22","ts":1640}]},{"longitude":-0.116764,"latitude":51.5136,"station_id":256,"station_name":"Houghton Street, Strand","ntrips":5,"trips":[{"station":"Tate Modern, Bankside","duration":720,"type":"inbound","distance":2746,"time":"08:09","ts":180},{"station":"Tate Modern, Bankside","duration":420,"type":"inbound","distance":2746,"time":"08:23","ts":459.99999999999994},{"station":"Michael Road, Walham Green","duration":1500,"type":"inbound","distance":8353,"time":"08:37","ts":740},{"station":"Great Dover Street, The Borough","duration":1020,"type":"inbound","distance":3639,"time":"09:09","ts":1380},{"station":"Curlew Street, Shad Thames","duration":900,"type":"inbound","distance":4820,"time":"09:09","ts":1380}]},{"longitude":-0.154907,"latitude":51.5225,"station_id":257,"station_name":"Westminster University, Marylebone","ntrips":0,"trips":[]},{"longitude":-0.178657,"latitude":51.5014,"station_id":258,"station_name":"Kensington Gore, Knightsbridge","ntrips":0,"trips":[]},{"longitude":-0.123248,"latitude":51.5049,"station_id":259,"station_name":"Bourne Street, Belgravia","ntrips":2,"trips":[{"station":"Royal Avenue 2, Chelsea","duration":540,"type":"outbound","distance":4420,"time":"08:26","ts":520},{"station":"Bevington Road West, North Kensington","duration":1200,"type":"inbound","distance":8246,"time":"08:49","ts":979.9999999999999}]},{"longitude":-0.135581,"latitude":51.5137,"station_id":260,"station_name":"Broadwick Street, Soho","ntrips":0,"trips":[]},{"longitude":-0.191351,"latitude":51.5135,"station_id":261,"station_name":"Princes Square, Bayswater","ntrips":1,"trips":[{"station":"Evesham Street, Avondale","duration":540,"type":"outbound","distance":2944,"time":"09:16","ts":1520}]},{"longitude":-0.103133,"latitude":51.4987,"station_id":262,"station_name":"LSBU (Borough Road), Elephant & Castle","ntrips":0,"trips":[]},{"longitude":-0.0806601,"latitude":51.5142,"station_id":263,"station_name":"St. Mary Axe, Aldgate","ntrips":3,"trips":[{"station":"Flamborough Street, Limehouse","duration":960,"type":"inbound","distance":3915,"time":"08:12","ts":240},{"station":"Harford Street, Mile End","duration":780,"type":"inbound","distance":3365,"time":"08:15","ts":300},{"station":"Charlotte Street, Fitzrovia","duration":1500,"type":"inbound","distance":6287,"time":"08:54","ts":1080}]},{"longitude":-0.109257,"latitude":51.5264,"station_id":264,"station_name":"Tysoe Street, Clerkenwell","ntrips":2,"trips":[{"station":"Belgrove Street , King's Cross","duration":420,"type":"outbound","distance":1629,"time":"09:11","ts":1420},{"station":"Theobald's Road , Holborn","duration":240,"type":"outbound","distance":890,"time":"09:29","ts":1780}]},{"longitude":-0.169249,"latitude":51.516,"station_id":265,"station_name":"Southwick Street, Paddington","ntrips":1,"trips":[{"station":"Smith Square, Westminster","duration":1320,"type":"outbound","distance":4964,"time":"09:11","ts":1420}]},{"longitude":-0.180246,"latitude":51.501,"station_id":266,"station_name":"Queen's Gate (North), Kensington","ntrips":2,"trips":[{"station":"Normand Park, West Kensington","duration":780,"type":"inbound","distance":3074,"time":"08:15","ts":300},{"station":"Falcon Road, Clapham Junction","duration":1080,"type":"inbound","distance":4493,"time":"09:11","ts":1420}]},{"longitude":-0.132225,"latitude":51.4921,"station_id":267,"station_name":"Regency Street, Westminster","ntrips":2,"trips":[{"station":"Baylis Road, Waterloo","duration":600,"type":"outbound","distance":2410,"time":"08:26","ts":520},{"station":"Ebury Bridge, Pimlico","duration":480,"type":"inbound","distance":1625,"time":"09:16","ts":1520}]},{"longitude":-0.144133,"latitude":51.4932,"station_id":268,"station_name":"Belgrave Road, Victoria","ntrips":2,"trips":[{"station":"Page Street, Westminster","duration":420,"type":"outbound","distance":2116,"time":"08:07","ts":140},{"station":"Michael Road, Walham Green","duration":900,"type":"outbound","distance":4127,"time":"08:24","ts":480}]},{"longitude":-0.0897408,"latitude":51.5008,"station_id":269,"station_name":"Empire Square, The Borough","ntrips":1,"trips":[{"station":"New Spring Gardens Walk, Vauxhall","duration":840,"type":"inbound","distance":3589,"time":"08:14","ts":280}]},{"longitude":-0.122492,"latitude":51.4863,"station_id":270,"station_name":"Kennington Lane Rail Bridge, Vauxhall","ntrips":7,"trips":[{"station":"Endsleigh Gardens, Euston","duration":1380,"type":"inbound","distance":6097,"time":"08:00","ts":0},{"station":"Lambeth Palace Road, Waterloo","duration":420,"type":"outbound","distance":2303,"time":"08:09","ts":180},{"station":"Sancroft Street, Vauxhall","duration":180,"type":"inbound","distance":1114,"time":"08:16","ts":320},{"station":"Fire Brigade Pier, Vauxhall","duration":360,"type":"outbound","distance":1560,"time":"08:18","ts":360},{"station":"Cotton Garden Estate, Kennington","duration":300,"type":"outbound","distance":1303,"time":"08:18","ts":360},{"station":"New North Road 1, Hoxton","duration":1560,"type":"inbound","distance":7590,"time":"08:49","ts":979.9999999999999},{"station":"Kennington Cross, Kennington","duration":300,"type":"inbound","distance":1346,"time":"09:09","ts":1380}]},{"longitude":-0.156285,"latitude":51.5358,"station_id":271,"station_name":"London Zoo, The Regent's Park","ntrips":0,"trips":[]},{"longitude":-0.110699,"latitude":51.5014,"station_id":272,"station_name":"Baylis Road, Waterloo","ntrips":4,"trips":[{"station":"Regency Street, Westminster","duration":600,"type":"inbound","distance":2410,"time":"08:16","ts":320},{"station":"Swan Street, The Borough","duration":360,"type":"inbound","distance":1636,"time":"09:02","ts":1240},{"station":"Kennington Oval, Oval","duration":660,"type":"inbound","distance":2302,"time":"09:08","ts":1360},{"station":"South Lambeth Road, Vauxhall","duration":660,"type":"inbound","distance":3025,"time":"09:13","ts":1460}]},{"longitude":-0.114686,"latitude":51.5061,"station_id":273,"station_name":"Belvedere Road 1, South Bank","ntrips":1,"trips":[{"station":"Braham Street, Aldgate","duration":1260,"type":"outbound","distance":4127,"time":"09:26","ts":1720}]},{"longitude":-0.205284,"latitude":51.4967,"station_id":274,"station_name":"Warwick Road, Olympia","ntrips":4,"trips":[{"station":"Ravenscourt Park Station, Hammersmith","duration":540,"type":"inbound","distance":3642,"time":"08:17","ts":340},{"station":"George Place Mews, Marylebone","duration":1320,"type":"outbound","distance":7618,"time":"08:22","ts":440},{"station":"William IV Street, Strand","duration":1380,"type":"outbound","distance":6609,"time":"08:29","ts":580},{"station":"Holland Park, Kensington","duration":360,"type":"outbound","distance":1449,"time":"09:23","ts":1660}]},{"longitude":-0.0921764,"latitude":51.52,"station_id":275,"station_name":"Barbican Centre, Barbican","ntrips":1,"trips":[{"station":"Northington Street , Holborn","duration":660,"type":"inbound","distance":4298,"time":"09:17","ts":1540}]},{"longitude":-0.0849854,"latitude":51.5093,"station_id":276,"station_name":"Lower Thames Street, Monument","ntrips":1,"trips":[{"station":"Snowsfields, London Bridge","duration":360,"type":"inbound","distance":3246,"time":"09:23","ts":1660}]},{"longitude":-0.191496,"latitude":51.5032,"station_id":277,"station_name":"Kensington Church Street, Kensington","ntrips":0,"trips":[]},{"longitude":-0.079621,"latitude":51.5035,"station_id":278,"station_name":"Tooley Street, Bermondsey","ntrips":2,"trips":[{"station":"LMU Commercial Road, Whitechapel","duration":540,"type":"inbound","distance":2905,"time":"08:14","ts":280},{"station":"Philpot Street, Whitechapel","duration":720,"type":"outbound","distance":2697,"time":"09:11","ts":1420}]},{"longitude":-0.176646,"latitude":51.5186,"station_id":279,"station_name":"North Wharf Road, Paddington","ntrips":1,"trips":[{"station":"Castlehaven Road, Camden Town","duration":1440,"type":"inbound","distance":5405,"time":"08:49","ts":979.9999999999999}]},{"longitude":-0.162727,"latitude":51.4899,"station_id":280,"station_name":"Royal Avenue 2, Chelsea","ntrips":2,"trips":[{"station":"Bourne Street, Belgravia","duration":540,"type":"inbound","distance":4420,"time":"08:17","ts":340},{"station":"Hurlingham Park, Parsons Green","duration":900,"type":"inbound","distance":3874,"time":"09:03","ts":1260}]},{"longitude":-0.127575,"latitude":51.4958,"station_id":281,"station_name":"Smith Square, Westminster","ntrips":3,"trips":[{"station":"Godliman Street, St. Paul's","duration":1020,"type":"inbound","distance":4062,"time":"08:10","ts":200},{"station":"Southwick Street, Paddington","duration":1320,"type":"inbound","distance":4964,"time":"08:49","ts":979.9999999999999},{"station":"Michael Road, Walham Green","duration":1440,"type":"inbound","distance":5846,"time":"09:01","ts":1220}]},{"longitude":-0.0596421,"latitude":51.5191,"station_id":282,"station_name":"Royal London Hospital, Whitechapel","ntrips":4,"trips":[{"station":"Brushfield Street, Liverpool Street","duration":420,"type":"inbound","distance":3072,"time":"08:06","ts":120},{"station":"Aquatic Centre, Queen Elizabeth Olympic Park","duration":1260,"type":"outbound","distance":6012,"time":"08:27","ts":540},{"station":"Hertford Road, De Beauvoir Town","duration":840,"type":"inbound","distance":4218,"time":"08:56","ts":1120},{"station":"Moorfields, Moorgate","duration":600,"type":"outbound","distance":3293,"time":"09:07","ts":1340}]},{"longitude":-0.118479,"latitude":51.5144,"station_id":283,"station_name":"Kingsway, Covent Garden","ntrips":0,"trips":[]},{"longitude":-0.112031,"latitude":51.4991,"station_id":284,"station_name":"Lambeth North Station, Waterloo","ntrips":1,"trips":[{"station":"Waterloo Place, St. James's","duration":660,"type":"outbound","distance":3338,"time":"09:15","ts":1500}]},{"longitude":-0.174654,"latitude":51.5273,"station_id":286,"station_name":"St. John's Wood Road, St. John's Wood","ntrips":1,"trips":[{"station":"Broadley Terrace, Marylebone","duration":180,"type":"outbound","distance":840,"time":"09:21","ts":1620}]},{"longitude":-0.128378,"latitude":51.5237,"station_id":287,"station_name":"Bedford Way, Bloomsbury","ntrips":1,"trips":[{"station":"Goswell Road (City Uni), Finsbury","duration":720,"type":"outbound","distance":2921,"time":"09:06","ts":1320}]},{"longitude":-0.147479,"latitude":51.4924,"station_id":288,"station_name":"Elizabeth Bridge, Victoria","ntrips":3,"trips":[{"station":"Warwick Row, Westminster","duration":240,"type":"inbound","distance":953,"time":"08:58","ts":1160},{"station":"South Kensington Station, South Kensington","duration":780,"type":"outbound","distance":2938,"time":"09:18","ts":1560},{"station":"Jewry Street, Aldgate","duration":1620,"type":"outbound","distance":7863,"time":"09:21","ts":1620}]},{"longitude":-0.151296,"latitude":51.5092,"station_id":289,"station_name":"South Audley Street, Mayfair","ntrips":1,"trips":[{"station":"Little Argyll Street, West End","duration":420,"type":"outbound","distance":1493,"time":"08:24","ts":480}]},{"longitude":-0.1711032,"latitude":51.518268,"station_id":290,"station_name":"St Mary's Hospital, Westminster","ntrips":5,"trips":[{"station":"Harrowby Street, Marylebone","duration":240,"type":"inbound","distance":1938,"time":"09:00","ts":1200},{"station":"Hinde Street, Marylebone","duration":540,"type":"inbound","distance":2601,"time":"09:02","ts":1240},{"station":"Albert Gate, Hyde Park","duration":720,"type":"inbound","distance":3751,"time":"09:11","ts":1420},{"station":"Stanhope Gate, Mayfair","duration":600,"type":"outbound","distance":2323,"time":"09:12","ts":1440},{"station":"Bonner Gate, Victoria Park","duration":1980,"type":"outbound","distance":26029,"time":"09:13","ts":1460}]},{"longitude":-0.138089,"latitude":51.4848,"station_id":291,"station_name":"Claverton Street, Pimlico","ntrips":1,"trips":[{"station":"Palace Gate, Kensington Gardens","duration":1080,"type":"outbound","distance":4997,"time":"09:07","ts":1340}]},{"longitude":-0.165472,"latitude":51.4989,"station_id":292,"station_name":"Montpelier Street, Knightsbridge","ntrips":1,"trips":[{"station":"Boston Place, Marylebone","duration":900,"type":"inbound","distance":4355,"time":"09:00","ts":1200}]},{"longitude":-0.209494,"latitude":51.4982,"station_id":293,"station_name":"Kensington Olympia Station, Olympia","ntrips":1,"trips":[{"station":"Abingdon Villas, Kensington","duration":360,"type":"outbound","distance":1153,"time":"08:20","ts":400}]},{"longitude":-0.135636,"latitude":51.4882,"station_id":294,"station_name":"St. George's Square, Pimlico","ntrips":1,"trips":[{"station":"Aintree Street, Fulham","duration":1680,"type":"inbound","distance":6270,"time":"08:48","ts":960}]},{"longitude":-0.0927627,"latitude":51.5003,"station_id":295,"station_name":"Swan Street, The Borough","ntrips":2,"trips":[{"station":"Great Dover Street, The Borough","duration":120,"type":"inbound","distance":985,"time":"08:02","ts":40},{"station":"Baylis Road, Waterloo","duration":360,"type":"outbound","distance":1636,"time":"09:08","ts":1360}]},{"longitude":-0.190603,"latitude":51.4936,"station_id":296,"station_name":"Knaresborough Place, Earl's Court","ntrips":0,"trips":[]},{"longitude":-0.106001,"latitude":51.4961,"station_id":297,"station_name":"Geraldine Street, Elephant & Castle","ntrips":3,"trips":[{"station":"Kennington Cross, Kennington","duration":240,"type":"inbound","distance":1922,"time":"08:25","ts":500},{"station":"New Spring Gardens Walk, Vauxhall","duration":480,"type":"outbound","distance":2160,"time":"09:01","ts":1220},{"station":"De Vere Gardens, Kensington","duration":1680,"type":"outbound","distance":6689,"time":"09:30","ts":1800}]},{"longitude":-0.0741892,"latitude":51.5023,"station_id":298,"station_name":"Curlew Street, Shad Thames","ntrips":3,"trips":[{"station":"Devonshire Square, Liverpool Street","duration":420,"type":"inbound","distance":2980,"time":"08:04","ts":80},{"station":"Lavington Street, Bankside","duration":600,"type":"outbound","distance":2365,"time":"09:19","ts":1580},{"station":"Houghton Street, Strand","duration":900,"type":"outbound","distance":4820,"time":"09:24","ts":1680}]},{"longitude":-0.136929,"latitude":51.494,"station_id":299,"station_name":"Vincent Square, Westminster","ntrips":0,"trips":[]},{"longitude":-0.17273,"latitude":51.505,"station_id":300,"station_name":"Serpentine Car Park, Hyde Park","ntrips":5,"trips":[{"station":"Green Street, Mayfair","duration":600,"type":"outbound","distance":2321,"time":"08:13","ts":260},{"station":"Putney Bridge Road, East Putney","duration":1920,"type":"inbound","distance":7168,"time":"08:31","ts":620},{"station":"Palace Gate, Kensington Gardens","duration":420,"type":"inbound","distance":1137,"time":"08:53","ts":1060},{"station":"Rochester Row, Westminster","duration":660,"type":"outbound","distance":4122,"time":"09:17","ts":1540},{"station":"Serpentine Car Park, Hyde Park","duration":1260,"type":"outbound","distance":0,"time":"09:20","ts":1600}]},{"longitude":-0.148105,"latitude":51.5148,"station_id":301,"station_name":"Marylebone Lane, Marylebone","ntrips":2,"trips":[{"station":"Warwick Row, Westminster","duration":720,"type":"inbound","distance":3866,"time":"08:10","ts":200},{"station":"Harcourt Terrace, West Brompton","duration":1440,"type":"inbound","distance":6231,"time":"08:54","ts":1080}]},{"longitude":-0.216573,"latitude":51.4669,"station_id":302,"station_name":"Putney Pier, Wandsworth","ntrips":0,"trips":[]},{"longitude":-0.158456,"latitude":51.503,"station_id":303,"station_name":"Albert Gate, Hyde Park","ntrips":2,"trips":[{"station":"Black Lion Gate, Kensington Gardens","duration":780,"type":"inbound","distance":3807,"time":"09:02","ts":1240},{"station":"St Mary's Hospital, Paddington","duration":720,"type":"outbound","distance":3751,"time":"09:23","ts":1660}]},{"longitude":-0.115854,"latitude":51.4868,"station_id":305,"station_name":"Kennington Lane Tesco, Vauxhall","ntrips":0,"trips":[]},{"longitude":-0.135026,"latitude":51.5182,"station_id":306,"station_name":"Rathbone Street, Fitzrovia","ntrips":1,"trips":[{"station":"Craven Street, Strand","duration":540,"type":"outbound","distance":2545,"time":"08:23","ts":459.99999999999994}]},{"longitude":-0.187843,"latitude":51.5099,"station_id":307,"station_name":"Black Lion Gate, Kensington Gardens","ntrips":3,"trips":[{"station":"Lexham Gardens, Kensington","duration":840,"type":"outbound","distance":2243,"time":"08:20","ts":400},{"station":"Albert Gate, Hyde Park","duration":780,"type":"outbound","distance":3807,"time":"09:15","ts":1500},{"station":"Black Lion Gate, Kensington Gardens","duration":2040,"type":"outbound","distance":0,"time":"09:17","ts":1540}]},{"longitude":-0.0856663,"latitude":51.4991,"station_id":308,"station_name":"Long Lane, Bermondsey","ntrips":0,"trips":[]},{"longitude":-0.119048,"latitude":51.5096,"station_id":309,"station_name":"Embankment (Savoy), Strand","ntrips":1,"trips":[{"station":"Waterloo Station 1, Waterloo","duration":360,"type":"inbound","distance":2200,"time":"08:08","ts":160}]},{"longitude":-0.116912,"latitude":51.4909,"station_id":310,"station_name":"Black Prince Road, Vauxhall","ntrips":0,"trips":[]},{"longitude":-0.140486,"latitude":51.5192,"station_id":311,"station_name":"Foley Street, Fitzrovia","ntrips":1,"trips":[{"station":"Belgrove Street , King's Cross","duration":720,"type":"inbound","distance":2425,"time":"08:14","ts":280}]},{"longitude":-0.176771,"latitude":51.5309,"station_id":312,"station_name":"Grove End Road, St. John's Wood","ntrips":2,"trips":[{"station":"Lisson Grove, St. John's Wood","duration":180,"type":"outbound","distance":608,"time":"09:16","ts":1520},{"station":"Harrowby Street, Marylebone","duration":600,"type":"outbound","distance":1951,"time":"09:17","ts":1540}]},{"longitude":-0.138073,"latitude":51.5173,"station_id":313,"station_name":"Wells Street, Fitzrovia","ntrips":1,"trips":[{"station":"Holland Park, Kensington","duration":1440,"type":"inbound","distance":5563,"time":"08:40","ts":800}]},{"longitude":-0.0831594,"latitude":51.5009,"station_id":314,"station_name":"Tyers Gate, Bermondsey","ntrips":2,"trips":[{"station":"Warren Street Station, Euston","duration":1560,"type":"inbound","distance":8194,"time":"08:47","ts":940.0000000000001},{"station":"Wandsworth Rd, Isley Court, Wandsworth Road","duration":1680,"type":"inbound","distance":7183,"time":"08:55","ts":1100}]},{"longitude":-0.153464,"latitude":51.5254,"station_id":315,"station_name":"The Tennis Courts, The Regent's Park","ntrips":4,"trips":[{"station":"Hinde Street, Marylebone","duration":360,"type":"inbound","distance":1408,"time":"08:01","ts":20},{"station":"Hinde Street, Marylebone","duration":360,"type":"inbound","distance":1408,"time":"08:01","ts":20},{"station":"Hinde Street, Marylebone","duration":240,"type":"outbound","distance":1983,"time":"09:01","ts":1220},{"station":"Hinde Street, Marylebone","duration":300,"type":"outbound","distance":1983,"time":"09:02","ts":1240}]},{"longitude":-0.1429606,"latitude":51.497998,"station_id":316,"station_name":"Warwick Row, Westminster","ntrips":3,"trips":[{"station":"Marylebone Lane, Marylebone","duration":720,"type":"outbound","distance":3866,"time":"08:22","ts":440},{"station":"Elizabeth Bridge, Victoria","duration":240,"type":"outbound","distance":953,"time":"09:02","ts":1240},{"station":"Southampton Street, Strand","duration":1560,"type":"outbound","distance":2912,"time":"09:28","ts":1760}]},{"longitude":-0.0939135,"latitude":51.4968,"station_id":317,"station_name":"Dickens Square, Borough","ntrips":2,"trips":[{"station":"Arundel Street, Temple","duration":660,"type":"outbound","distance":1428,"time":"08:28","ts":560},{"station":"Clapham Common North Side, Clapham Common","duration":1620,"type":"inbound","distance":7414,"time":"08:54","ts":1080}]},{"longitude":-0.138846,"latitude":51.51,"station_id":318,"station_name":"Sackville Street, Mayfair","ntrips":0,"trips":[]},{"longitude":-0.0885428,"latitude":51.527,"station_id":319,"station_name":"Baldwin Street, St. Luke's","ntrips":6,"trips":[{"station":"Southampton Place, Holborn","duration":660,"type":"outbound","distance":3350,"time":"08:13","ts":260},{"station":"Pindar Street, Liverpool Street","duration":300,"type":"inbound","distance":1069,"time":"08:15","ts":300},{"station":"Paddington Street, Marylebone","duration":1500,"type":"inbound","distance":5323,"time":"08:46","ts":919.9999999999999},{"station":"Abingdon Green, Westminster","duration":1020,"type":"outbound","distance":5926,"time":"09:03","ts":1260},{"station":"Bayley Street , Bloomsbury","duration":1080,"type":"outbound","distance":5850,"time":"09:05","ts":1300},{"station":"George Street, Marylebone","duration":1320,"type":"outbound","distance":6058,"time":"09:09","ts":1380}]},{"longitude":-0.139956,"latitude":51.4936,"station_id":320,"station_name":"Queen Mother Sports Centre, Victoria","ntrips":0,"trips":[]},{"longitude":-0.081608,"latitude":51.4979,"station_id":321,"station_name":"Bermondsey Street, Bermondsey","ntrips":2,"trips":[{"station":"Battersea Power Station, Battersea Park","duration":1500,"type":"inbound","distance":6887,"time":"08:46","ts":919.9999999999999},{"station":"Tachbrook Street, Victoria","duration":1380,"type":"outbound","distance":5213,"time":"09:26","ts":1720}]},{"longitude":-0.073955,"latitude":51.5263,"station_id":322,"station_name":"Palissy Street, Shoreditch","ntrips":0,"trips":[]},{"longitude":-0.083067,"latitude":51.5232,"station_id":323,"station_name":"Clifton Street, Shoreditch","ntrips":3,"trips":[{"station":"Bonner Gate, Victoria Park","duration":540,"type":"inbound","distance":32670,"time":"08:53","ts":1060},{"station":"Wellington Row, Bethnal Green","duration":420,"type":"inbound","distance":1888,"time":"08:56","ts":1120},{"station":"Pindar Street, Liverpool Street","duration":120,"type":"inbound","distance":857,"time":"08:58","ts":1160}]},{"longitude":-0.101384,"latitude":51.4965,"station_id":324,"station_name":"Ontario Street, Elephant & Castle","ntrips":1,"trips":[{"station":"Lambeth Palace Road, Waterloo","duration":360,"type":"inbound","distance":1605,"time":"08:17","ts":340}]},{"longitude":-0.129698,"latitude":51.5091,"station_id":325,"station_name":"St. Martin's Street, West End","ntrips":1,"trips":[{"station":"Queen's Gate (South), South Kensington","duration":1080,"type":"inbound","distance":4504,"time":"08:46","ts":919.9999999999999}]},